{
  "venues": [
    {
      "id": 1,
      "location": {
        "postalCode": "86-990",
        "name": "Syców"
      },
      "pricePerNightInEur": 12.98,
      "rating": 4.89,
      "capacity": 1,
      "name": "slim-step",
      "albumId": 1
    },
    {
      "id": 2,
      "location": {
        "postalCode": "16-799",
        "name": "Kisielice"
      },
      "pricePerNightInEur": 12.49,
      "rating": 4.35,
      "capacity": 1,
      "name": "meek-specialist",
      "albumId": 2
    },
    {
      "id": 3,
      "location": {
        "postalCode": "70-582",
        "name": "Sulejów"
      },
      "pricePerNightInEur": 31.42,
      "rating": 1.73,
      "capacity": 7,
      "name": "wrong-woodland",
      "albumId": 3
    },
    {
      "id": 4,
      "location": {
        "postalCode": "62-437",
        "name": "Pszczyna"
      },
      "pricePerNightInEur": 11.76,
      "rating": 4.35,
      "capacity": 7,
      "name": "naughty-astrologer",
      "albumId": 4
    },
    {
      "id": 5,
      "location": {
        "postalCode": "63-513",
        "name": "Świdnik"
      },
      "pricePerNightInEur": 11.85,
      "rating": 3.35,
      "capacity": 4,
      "name": "victorious-trowel",
      "albumId": 5
    },
    {
      "id": 6,
      "location": {
        "postalCode": "55-074",
        "name": "Kętrzyn"
      },
      "pricePerNightInEur": 13.8,
      "rating": 4.85,
      "capacity": 3,
      "name": "incompatible-homicide",
      "albumId": 6
    },
    {
      "id": 7,
      "location": {
        "postalCode": "12-488",
        "name": "Działdowo"
      },
      "pricePerNightInEur": 18.38,
      "rating": 3.61,
      "capacity": 1,
      "name": "buttery-help",
      "albumId": 7
    },
    {
      "id": 8,
      "location": {
        "postalCode": "27-483",
        "name": "Orneta"
      },
      "pricePerNightInEur": 33.6,
      "rating": 2.73,
      "capacity": 6,
      "name": "short-term-gasoline",
      "albumId": 8
    },
    {
      "id": 9,
      "location": {
        "postalCode": "37-783",
        "name": "Syców"
      },
      "pricePerNightInEur": 32.24,
      "rating": 2.57,
      "capacity": 4,
      "name": "musty-twister",
      "albumId": 9
    },
    {
      "id": 10,
      "location": {
        "postalCode": "11-604",
        "name": "Barlinek"
      },
      "pricePerNightInEur": 12.26,
      "rating": 4.95,
      "capacity": 4,
      "name": "soggy-scanner",
      "albumId": 10
    },
    {
      "id": 11,
      "location": {
        "postalCode": "97-222",
        "name": "Chełmek"
      },
      "pricePerNightInEur": 20.96,
      "rating": 2.19,
      "capacity": 1,
      "name": "trifling-chess",
      "albumId": 11
    },
    {
      "id": 12,
      "location": {
        "postalCode": "66-955",
        "name": "Dzierżoniów"
      },
      "pricePerNightInEur": 29.98,
      "rating": 4.32,
      "capacity": 3,
      "name": "bronze-unique",
      "albumId": 12
    },
    {
      "id": 13,
      "location": {
        "postalCode": "23-075",
        "name": "Tarnogród"
      },
      "pricePerNightInEur": 23.18,
      "rating": 1.28,
      "capacity": 5,
      "name": "ornate-turnip",
      "albumId": 13
    },
    {
      "id": 14,
      "location": {
        "postalCode": "93-331",
        "name": "Sieraków"
      },
      "pricePerNightInEur": 26.11,
      "rating": 4.57,
      "capacity": 2,
      "name": "glum-wedge",
      "albumId": 14
    },
    {
      "id": 15,
      "location": {
        "postalCode": "50-699",
        "name": "Police"
      },
      "pricePerNightInEur": 23.46,
      "rating": 4.87,
      "capacity": 5,
      "name": "bare-reader",
      "albumId": 15
    },
    {
      "id": 16,
      "location": {
        "postalCode": "12-869",
        "name": "Gryfów Śląski"
      },
      "pricePerNightInEur": 14.02,
      "rating": 4.19,
      "capacity": 5,
      "name": "inexperienced-legend",
      "albumId": 16
    },
    {
      "id": 17,
      "location": {
        "postalCode": "28-636",
        "name": "Kętrzyn"
      },
      "pricePerNightInEur": 13.88,
      "rating": 4.73,
      "capacity": 8,
      "name": "querulous-warning",
      "albumId": 17
    },
    {
      "id": 18,
      "location": {
        "postalCode": "14-978",
        "name": "Zwierzyniec"
      },
      "pricePerNightInEur": 17.67,
      "rating": 3.88,
      "capacity": 3,
      "name": "pointed-slaw",
      "albumId": 18
    },
    {
      "id": 19,
      "location": {
        "postalCode": "90-275",
        "name": "Brodnica"
      },
      "pricePerNightInEur": 10.67,
      "rating": 3.34,
      "capacity": 4,
      "name": "leafy-venison",
      "albumId": 19
    },
    {
      "id": 20,
      "location": {
        "postalCode": "02-628",
        "name": "Malbork"
      },
      "pricePerNightInEur": 26.55,
      "rating": 3.36,
      "capacity": 3,
      "name": "made-up-technician",
      "albumId": 20
    },
    {
      "id": 21,
      "location": {
        "postalCode": "61-773",
        "name": "Elbląg"
      },
      "pricePerNightInEur": 27.36,
      "rating": 2.26,
      "capacity": 6,
      "name": "disguised-territory",
      "albumId": 21
    },
    {
      "id": 22,
      "location": {
        "postalCode": "01-325",
        "name": "Biała Piska"
      },
      "pricePerNightInEur": 27.92,
      "rating": 4.95,
      "capacity": 7,
      "name": "long-term-subcomponent",
      "albumId": 22
    },
    {
      "id": 23,
      "location": {
        "postalCode": "22-183",
        "name": "Opalenica"
      },
      "pricePerNightInEur": 10.7,
      "rating": 2.46,
      "capacity": 3,
      "name": "unwieldy-subexpression",
      "albumId": 23
    },
    {
      "id": 24,
      "location": {
        "postalCode": "38-320",
        "name": "Lędziny"
      },
      "pricePerNightInEur": 23.21,
      "rating": 4.54,
      "capacity": 3,
      "name": "somber-back-up",
      "albumId": 24
    },
    {
      "id": 25,
      "location": {
        "postalCode": "66-391",
        "name": "Podkowa Leśna"
      },
      "pricePerNightInEur": 13.65,
      "rating": 1.93,
      "capacity": 7,
      "name": "minor-alarm",
      "albumId": 25
    },
    {
      "id": 26,
      "location": {
        "postalCode": "79-560",
        "name": "Stąporków"
      },
      "pricePerNightInEur": 22.31,
      "rating": 2.47,
      "capacity": 5,
      "name": "weary-barbiturate",
      "albumId": 26
    },
    {
      "id": 27,
      "location": {
        "postalCode": "86-010",
        "name": "Oleśnica"
      },
      "pricePerNightInEur": 14.93,
      "rating": 2.14,
      "capacity": 5,
      "name": "anxious-tactics",
      "albumId": 27
    },
    {
      "id": 28,
      "location": {
        "postalCode": "56-790",
        "name": "Strzelno"
      },
      "pricePerNightInEur": 32.76,
      "rating": 4.35,
      "capacity": 1,
      "name": "soupy-drag",
      "albumId": 28
    },
    {
      "id": 29,
      "location": {
        "postalCode": "54-263",
        "name": "Poręba"
      },
      "pricePerNightInEur": 34.4,
      "rating": 1.47,
      "capacity": 7,
      "name": "untidy-atm",
      "albumId": 29
    },
    {
      "id": 30,
      "location": {
        "postalCode": "70-668",
        "name": "Sępopol"
      },
      "pricePerNightInEur": 10.51,
      "rating": 1.88,
      "capacity": 3,
      "name": "rundown-corduroy",
      "albumId": 30
    },
    {
      "id": 31,
      "location": {
        "postalCode": "00-255",
        "name": "Sulejów"
      },
      "pricePerNightInEur": 20.79,
      "rating": 1.2,
      "capacity": 8,
      "name": "assured-chops",
      "albumId": 31
    },
    {
      "id": 32,
      "location": {
        "postalCode": "76-124",
        "name": "Zambrów"
      },
      "pricePerNightInEur": 33.26,
      "rating": 1.97,
      "capacity": 4,
      "name": "false-sense",
      "albumId": 32
    },
    {
      "id": 33,
      "location": {
        "postalCode": "54-113",
        "name": "Malbork"
      },
      "pricePerNightInEur": 29.59,
      "rating": 3.44,
      "capacity": 8,
      "name": "forsaken-immortal",
      "albumId": 33
    },
    {
      "id": 34,
      "location": {
        "postalCode": "65-955",
        "name": "Rzepin"
      },
      "pricePerNightInEur": 31.2,
      "rating": 2.76,
      "capacity": 4,
      "name": "ill-fated-sick",
      "albumId": 34
    },
    {
      "id": 35,
      "location": {
        "postalCode": "57-456",
        "name": "Zbąszynek"
      },
      "pricePerNightInEur": 29.35,
      "rating": 3.84,
      "capacity": 5,
      "name": "melodic-crook",
      "albumId": 35
    },
    {
      "id": 36,
      "location": {
        "postalCode": "08-232",
        "name": "Stronie Śląskie"
      },
      "pricePerNightInEur": 18.7,
      "rating": 2.9,
      "capacity": 7,
      "name": "super-bather",
      "albumId": 36
    },
    {
      "id": 37,
      "location": {
        "postalCode": "29-432",
        "name": "Poddębice"
      },
      "pricePerNightInEur": 22.65,
      "rating": 4.55,
      "capacity": 7,
      "name": "phony-bookcase",
      "albumId": 37
    },
    {
      "id": 38,
      "location": {
        "postalCode": "52-290",
        "name": "Ozorków"
      },
      "pricePerNightInEur": 24,
      "rating": 2.51,
      "capacity": 2,
      "name": "gaseous-destination",
      "albumId": 38
    },
    {
      "id": 39,
      "location": {
        "postalCode": "31-200",
        "name": "Kock"
      },
      "pricePerNightInEur": 31.55,
      "rating": 3.25,
      "capacity": 3,
      "name": "boiling-load",
      "albumId": 39
    },
    {
      "id": 40,
      "location": {
        "postalCode": "48-229",
        "name": "Kąty Wrocławskie"
      },
      "pricePerNightInEur": 26.87,
      "rating": 2.66,
      "capacity": 5,
      "name": "puny-gem",
      "albumId": 40
    },
    {
      "id": 41,
      "location": {
        "postalCode": "33-016",
        "name": "Sejny"
      },
      "pricePerNightInEur": 10.79,
      "rating": 2.34,
      "capacity": 7,
      "name": "reckless-ringworm",
      "albumId": 41
    },
    {
      "id": 42,
      "location": {
        "postalCode": "56-074",
        "name": "Dąbrowa Górnicza"
      },
      "pricePerNightInEur": 11.44,
      "rating": 1.4,
      "capacity": 7,
      "name": "unlined-ginseng",
      "albumId": 42
    },
    {
      "id": 43,
      "location": {
        "postalCode": "14-391",
        "name": "Myszków"
      },
      "pricePerNightInEur": 26.77,
      "rating": 4.11,
      "capacity": 7,
      "name": "knobby-solidity",
      "albumId": 43
    },
    {
      "id": 44,
      "location": {
        "postalCode": "11-862",
        "name": "Osiek"
      },
      "pricePerNightInEur": 13.43,
      "rating": 1.3,
      "capacity": 7,
      "name": "waterlogged-bench",
      "albumId": 44
    },
    {
      "id": 45,
      "location": {
        "postalCode": "66-386",
        "name": "Kożuchów"
      },
      "pricePerNightInEur": 10.25,
      "rating": 4.8,
      "capacity": 6,
      "name": "firm-terrarium",
      "albumId": 45
    },
    {
      "id": 46,
      "location": {
        "postalCode": "77-423",
        "name": "Ciechanowiec"
      },
      "pricePerNightInEur": 13.45,
      "rating": 3.86,
      "capacity": 8,
      "name": "bright-north",
      "albumId": 46
    },
    {
      "id": 47,
      "location": {
        "postalCode": "64-887",
        "name": "Krasnystaw"
      },
      "pricePerNightInEur": 26.2,
      "rating": 2.57,
      "capacity": 4,
      "name": "general-user",
      "albumId": 47
    },
    {
      "id": 48,
      "location": {
        "postalCode": "00-654",
        "name": "Głuchołazy"
      },
      "pricePerNightInEur": 21.12,
      "rating": 3.76,
      "capacity": 6,
      "name": "gregarious-mate",
      "albumId": 48
    },
    {
      "id": 49,
      "location": {
        "postalCode": "91-931",
        "name": "Skawina"
      },
      "pricePerNightInEur": 22.32,
      "rating": 3.19,
      "capacity": 3,
      "name": "yearly-due",
      "albumId": 49
    },
    {
      "id": 50,
      "location": {
        "postalCode": "53-560",
        "name": "Brok"
      },
      "pricePerNightInEur": 28.24,
      "rating": 1.44,
      "capacity": 6,
      "name": "wrong-cacao",
      "albumId": 50
    },
    {
      "id": 51,
      "location": {
        "postalCode": "40-247",
        "name": "Goniądz"
      },
      "pricePerNightInEur": 20.21,
      "rating": 3.04,
      "capacity": 4,
      "name": "impassioned-earplug",
      "albumId": 51
    },
    {
      "id": 52,
      "location": {
        "postalCode": "16-235",
        "name": "Radlin"
      },
      "pricePerNightInEur": 26.35,
      "rating": 4.22,
      "capacity": 8,
      "name": "shimmering-shift",
      "albumId": 52
    },
    {
      "id": 53,
      "location": {
        "postalCode": "40-781",
        "name": "Zgorzelec"
      },
      "pricePerNightInEur": 26,
      "rating": 2.32,
      "capacity": 3,
      "name": "advanced-patrimony",
      "albumId": 53
    },
    {
      "id": 54,
      "location": {
        "postalCode": "14-704",
        "name": "Lubsko"
      },
      "pricePerNightInEur": 17.49,
      "rating": 1.24,
      "capacity": 4,
      "name": "well-documented-wood",
      "albumId": 54
    },
    {
      "id": 55,
      "location": {
        "postalCode": "26-070",
        "name": "Świdnica"
      },
      "pricePerNightInEur": 29.91,
      "rating": 2.25,
      "capacity": 4,
      "name": "outstanding-highlight",
      "albumId": 55
    },
    {
      "id": 56,
      "location": {
        "postalCode": "50-517",
        "name": "Pyzdry"
      },
      "pricePerNightInEur": 11.44,
      "rating": 2.14,
      "capacity": 2,
      "name": "virtual-cummerbund",
      "albumId": 56
    },
    {
      "id": 57,
      "location": {
        "postalCode": "14-656",
        "name": "Stargard Szczeciński"
      },
      "pricePerNightInEur": 25.45,
      "rating": 3.01,
      "capacity": 1,
      "name": "clueless-thunder",
      "albumId": 57
    },
    {
      "id": 58,
      "location": {
        "postalCode": "00-778",
        "name": "Łaszczów"
      },
      "pricePerNightInEur": 17.05,
      "rating": 3.7,
      "capacity": 6,
      "name": "obedient-tire",
      "albumId": 58
    },
    {
      "id": 59,
      "location": {
        "postalCode": "44-723",
        "name": "Wyszków"
      },
      "pricePerNightInEur": 28.72,
      "rating": 3.19,
      "capacity": 7,
      "name": "cheery-instance",
      "albumId": 59
    },
    {
      "id": 60,
      "location": {
        "postalCode": "42-181",
        "name": "Rakoniewice"
      },
      "pricePerNightInEur": 17.19,
      "rating": 1.02,
      "capacity": 1,
      "name": "familiar-boatyard",
      "albumId": 60
    },
    {
      "id": 61,
      "location": {
        "postalCode": "02-294",
        "name": "Oborniki"
      },
      "pricePerNightInEur": 19.19,
      "rating": 3.5,
      "capacity": 5,
      "name": "well-made-birdcage",
      "albumId": 61
    },
    {
      "id": 62,
      "location": {
        "postalCode": "65-096",
        "name": "Stawiski"
      },
      "pricePerNightInEur": 10.93,
      "rating": 4.54,
      "capacity": 8,
      "name": "few-tragedy",
      "albumId": 62
    },
    {
      "id": 63,
      "location": {
        "postalCode": "81-240",
        "name": "Łeba"
      },
      "pricePerNightInEur": 31.38,
      "rating": 2.75,
      "capacity": 5,
      "name": "frozen-sibling",
      "albumId": 63
    },
    {
      "id": 64,
      "location": {
        "postalCode": "23-056",
        "name": "Rzeszów"
      },
      "pricePerNightInEur": 12.35,
      "rating": 1.85,
      "capacity": 3,
      "name": "serene-urgency",
      "albumId": 64
    },
    {
      "id": 65,
      "location": {
        "postalCode": "98-819",
        "name": "Bardo"
      },
      "pricePerNightInEur": 25.57,
      "rating": 1.01,
      "capacity": 2,
      "name": "black-orator",
      "albumId": 65
    },
    {
      "id": 66,
      "location": {
        "postalCode": "98-216",
        "name": "Ostrów Mazowiecka"
      },
      "pricePerNightInEur": 26.89,
      "rating": 4.96,
      "capacity": 7,
      "name": "reflecting-nest",
      "albumId": 66
    },
    {
      "id": 67,
      "location": {
        "postalCode": "06-136",
        "name": "Łapy"
      },
      "pricePerNightInEur": 26.53,
      "rating": 3.09,
      "capacity": 1,
      "name": "best-homosexuality",
      "albumId": 67
    },
    {
      "id": 68,
      "location": {
        "postalCode": "87-209",
        "name": "Raciąż"
      },
      "pricePerNightInEur": 31.89,
      "rating": 3.7,
      "capacity": 4,
      "name": "unlucky-plot",
      "albumId": 68
    },
    {
      "id": 69,
      "location": {
        "postalCode": "22-210",
        "name": "Szczebrzeszyn"
      },
      "pricePerNightInEur": 31.3,
      "rating": 1.49,
      "capacity": 1,
      "name": "arctic-moccasins",
      "albumId": 69
    },
    {
      "id": 70,
      "location": {
        "postalCode": "56-475",
        "name": "Skoczów"
      },
      "pricePerNightInEur": 18.68,
      "rating": 4.29,
      "capacity": 4,
      "name": "careless-chiffonier",
      "albumId": 70
    },
    {
      "id": 71,
      "location": {
        "postalCode": "92-484",
        "name": "Sucha Beskidzka"
      },
      "pricePerNightInEur": 34.47,
      "rating": 4.96,
      "capacity": 7,
      "name": "overlooked-adrenaline",
      "albumId": 71
    },
    {
      "id": 72,
      "location": {
        "postalCode": "28-527",
        "name": "Mszana Dolna"
      },
      "pricePerNightInEur": 19.62,
      "rating": 3.13,
      "capacity": 6,
      "name": "greedy-sled",
      "albumId": 72
    },
    {
      "id": 73,
      "location": {
        "postalCode": "45-766",
        "name": "Rawa Mazowiecka"
      },
      "pricePerNightInEur": 17.07,
      "rating": 3.22,
      "capacity": 8,
      "name": "compassionate-hermit",
      "albumId": 73
    },
    {
      "id": 74,
      "location": {
        "postalCode": "48-446",
        "name": "Jeziorany"
      },
      "pricePerNightInEur": 31.73,
      "rating": 3.43,
      "capacity": 1,
      "name": "wary-alligator",
      "albumId": 74
    },
    {
      "id": 75,
      "location": {
        "postalCode": "95-495",
        "name": "Żarki"
      },
      "pricePerNightInEur": 14.42,
      "rating": 1.38,
      "capacity": 8,
      "name": "mountainous-ankle",
      "albumId": 75
    },
    {
      "id": 76,
      "location": {
        "postalCode": "40-856",
        "name": "Młynary"
      },
      "pricePerNightInEur": 24.52,
      "rating": 2.9,
      "capacity": 3,
      "name": "pleasant-placode",
      "albumId": 76
    },
    {
      "id": 77,
      "location": {
        "postalCode": "15-300",
        "name": "Hrubieszów"
      },
      "pricePerNightInEur": 23.65,
      "rating": 2.92,
      "capacity": 3,
      "name": "variable-nymph",
      "albumId": 77
    },
    {
      "id": 78,
      "location": {
        "postalCode": "90-199",
        "name": "Rydzyna"
      },
      "pricePerNightInEur": 18.7,
      "rating": 1.87,
      "capacity": 5,
      "name": "tall-rhinoceros",
      "albumId": 78
    },
    {
      "id": 79,
      "location": {
        "postalCode": "21-261",
        "name": "Zakliczyn"
      },
      "pricePerNightInEur": 30.72,
      "rating": 1.55,
      "capacity": 1,
      "name": "mammoth-action",
      "albumId": 79
    },
    {
      "id": 80,
      "location": {
        "postalCode": "25-128",
        "name": "Radzyń Chełmiński"
      },
      "pricePerNightInEur": 25.09,
      "rating": 3.58,
      "capacity": 5,
      "name": "cheerful-noun",
      "albumId": 80
    },
    {
      "id": 81,
      "location": {
        "postalCode": "92-996",
        "name": "Wałcz"
      },
      "pricePerNightInEur": 11.41,
      "rating": 2.95,
      "capacity": 6,
      "name": "parched-arrest",
      "albumId": 81
    },
    {
      "id": 82,
      "location": {
        "postalCode": "26-356",
        "name": "Ryglice"
      },
      "pricePerNightInEur": 32.96,
      "rating": 1.86,
      "capacity": 6,
      "name": "functional-netball",
      "albumId": 82
    },
    {
      "id": 83,
      "location": {
        "postalCode": "55-144",
        "name": "Aleksandrów Łódzki"
      },
      "pricePerNightInEur": 17.54,
      "rating": 4.81,
      "capacity": 5,
      "name": "pale-thinking",
      "albumId": 83
    },
    {
      "id": 84,
      "location": {
        "postalCode": "44-138",
        "name": "Zbąszynek"
      },
      "pricePerNightInEur": 26.52,
      "rating": 4.88,
      "capacity": 7,
      "name": "realistic-hatchet",
      "albumId": 84
    },
    {
      "id": 85,
      "location": {
        "postalCode": "95-156",
        "name": "Mirsk"
      },
      "pricePerNightInEur": 13.47,
      "rating": 2.58,
      "capacity": 7,
      "name": "monthly-publishing",
      "albumId": 85
    },
    {
      "id": 86,
      "location": {
        "postalCode": "88-726",
        "name": "Duszniki-Zdrój"
      },
      "pricePerNightInEur": 19.64,
      "rating": 2.63,
      "capacity": 8,
      "name": "rapid-soliloquy",
      "albumId": 86
    },
    {
      "id": 87,
      "location": {
        "postalCode": "24-060",
        "name": "Biała"
      },
      "pricePerNightInEur": 11.84,
      "rating": 4.68,
      "capacity": 2,
      "name": "delightful-tournament",
      "albumId": 87
    },
    {
      "id": 88,
      "location": {
        "postalCode": "87-810",
        "name": "Ulanów"
      },
      "pricePerNightInEur": 33.44,
      "rating": 4.32,
      "capacity": 8,
      "name": "fluid-mug",
      "albumId": 88
    },
    {
      "id": 89,
      "location": {
        "postalCode": "90-954",
        "name": "Czchów"
      },
      "pricePerNightInEur": 31.65,
      "rating": 4.6,
      "capacity": 6,
      "name": "cuddly-tugboat",
      "albumId": 89
    },
    {
      "id": 90,
      "location": {
        "postalCode": "42-642",
        "name": "Chocianów"
      },
      "pricePerNightInEur": 13.48,
      "rating": 4.97,
      "capacity": 1,
      "name": "straight-cowboy",
      "albumId": 90
    },
    {
      "id": 91,
      "location": {
        "postalCode": "89-307",
        "name": "Przedecz"
      },
      "pricePerNightInEur": 26.2,
      "rating": 1.47,
      "capacity": 4,
      "name": "ruddy-overnighter",
      "albumId": 91
    },
    {
      "id": 92,
      "location": {
        "postalCode": "21-692",
        "name": "Żarów"
      },
      "pricePerNightInEur": 21.52,
      "rating": 3.59,
      "capacity": 2,
      "name": "remote-peach",
      "albumId": 92
    },
    {
      "id": 93,
      "location": {
        "postalCode": "04-280",
        "name": "Legionowo"
      },
      "pricePerNightInEur": 19.16,
      "rating": 3,
      "capacity": 1,
      "name": "blaring-bandana",
      "albumId": 93
    },
    {
      "id": 94,
      "location": {
        "postalCode": "06-560",
        "name": "Radzyń Podlaski"
      },
      "pricePerNightInEur": 26.42,
      "rating": 1.54,
      "capacity": 8,
      "name": "new-psychologist",
      "albumId": 94
    },
    {
      "id": 95,
      "location": {
        "postalCode": "13-261",
        "name": "Nowe Brzesko"
      },
      "pricePerNightInEur": 30.6,
      "rating": 2.86,
      "capacity": 6,
      "name": "self-reliant-detention",
      "albumId": 95
    },
    {
      "id": 96,
      "location": {
        "postalCode": "05-301",
        "name": "Łeba"
      },
      "pricePerNightInEur": 29.84,
      "rating": 4.16,
      "capacity": 3,
      "name": "double-hash",
      "albumId": 96
    },
    {
      "id": 97,
      "location": {
        "postalCode": "06-260",
        "name": "Jedwabne"
      },
      "pricePerNightInEur": 33.47,
      "rating": 3.55,
      "capacity": 1,
      "name": "unfit-convention",
      "albumId": 97
    },
    {
      "id": 98,
      "location": {
        "postalCode": "38-600",
        "name": "Baborów"
      },
      "pricePerNightInEur": 18.8,
      "rating": 4.76,
      "capacity": 6,
      "name": "putrid-inequality",
      "albumId": 98
    },
    {
      "id": 99,
      "location": {
        "postalCode": "29-217",
        "name": "Łańcut"
      },
      "pricePerNightInEur": 29.45,
      "rating": 3.25,
      "capacity": 3,
      "name": "gorgeous-epoch",
      "albumId": 99
    },
    {
      "id": 100,
      "location": {
        "postalCode": "98-508",
        "name": "Kętrzyn"
      },
      "pricePerNightInEur": 26.22,
      "rating": 3.71,
      "capacity": 7,
      "name": "tame-music",
      "albumId": 100
    }
  ],
  "venuesDetails": [
    {
      "id": 6149,
      "venueId": 1,
      "location": {
        "postalCode": "86-990",
        "name": "Syców"
      },
      "pricePerNightInEur": 12.98,
      "rating": 4.89,
      "capacity": 1,
      "name": "slim-step",
      "albumId": 1,
      "description": "At iure nulla non. Aperiam maxime architecto eaque repudiandae consequatur ullam. Corporis qui necessitatibus ab cum consequuntur laudantium culpa. Dolore recusandae necessitatibus dicta est quidem itaque accusantium quod adipisci. Ipsa architecto recusandae id voluptatibus aperiam.",
      "features": [
        "earum",
        "dicta",
        "nostrum",
        "dolorem",
        "reiciendis",
        "dolor",
        "consectetur",
        "numquam",
        "quae",
        "laboriosam"
      ],
      "sleepingDetails": {
        "maxCapacity": 8,
        "amountOfBeds": 2
      },
      "checkInHour": "4pm",
      "checkOutHour": "10am",
      "distanceFromCityCenterInKM": 4,
      "contactDetails": {
        "phone": "84-807-97-52",
        "email": "Weronika_ukasik@hotmail.com"
      }
    },
    {
      "id": 49407,
      "venueId": 2,
      "location": {
        "postalCode": "16-799",
        "name": "Kisielice"
      },
      "pricePerNightInEur": 12.49,
      "rating": 4.35,
      "capacity": 1,
      "name": "meek-specialist",
      "albumId": 2,
      "description": "Vero tempora officia minima provident. Veritatis illo magnam perspiciatis necessitatibus sapiente. Quidem sapiente aperiam atque quis vitae consectetur. Explicabo delectus earum asperiores minus esse blanditiis quae et.",
      "features": [
        "voluptate",
        "laudantium",
        "hic",
        "ducimus",
        "nobis",
        "quis"
      ],
      "sleepingDetails": {
        "maxCapacity": 4,
        "amountOfBeds": 3
      },
      "checkInHour": "4pm",
      "checkOutHour": "10am",
      "distanceFromCityCenterInKM": 3,
      "contactDetails": {
        "phone": "91-312-50-44",
        "email": "azarz.Dbek30@hotmail.com"
      }
    },
    {
      "id": 80416,
      "venueId": 3,
      "location": {
        "postalCode": "70-582",
        "name": "Sulejów"
      },
      "pricePerNightInEur": 31.42,
      "rating": 1.73,
      "capacity": 7,
      "name": "wrong-woodland",
      "albumId": 3,
      "description": "Modi facere omnis vero minima natus quos in facere. Molestiae officia quisquam id itaque saepe harum. Asperiores adipisci ab cumque. Repellendus modi praesentium dolorem. Sint quia nihil perspiciatis enim. Repellendus repellat neque mollitia.",
      "features": [
        "ullam",
        "ratione",
        "vitae",
        "odio",
        "optio",
        "quaerat"
      ],
      "sleepingDetails": {
        "maxCapacity": 7,
        "amountOfBeds": 6
      },
      "checkInHour": "4pm",
      "checkOutHour": "10am",
      "distanceFromCityCenterInKM": 4,
      "contactDetails": {
        "phone": "54-030-90-84",
        "email": "Edyta40@hotmail.com"
      }
    },
    {
      "id": 33943,
      "venueId": 4,
      "location": {
        "postalCode": "62-437",
        "name": "Pszczyna"
      },
      "pricePerNightInEur": 11.76,
      "rating": 4.35,
      "capacity": 7,
      "name": "naughty-astrologer",
      "albumId": 4,
      "description": "Vitae commodi quae enim exercitationem corrupti provident itaque explicabo deserunt. Eveniet recusandae praesentium quis. Esse molestiae quia molestias delectus. Soluta ex illum aut. Aperiam voluptate tempore maiores veniam voluptatum maxime dicta porro doloremque.",
      "features": [
        "illum",
        "repellat",
        "in",
        "architecto",
        "eum",
        "saepe"
      ],
      "sleepingDetails": {
        "maxCapacity": 5,
        "amountOfBeds": 3
      },
      "checkInHour": "4pm",
      "checkOutHour": "10am",
      "distanceFromCityCenterInKM": 8,
      "contactDetails": {
        "phone": "14-194-23-40",
        "email": "Lea.Bielawski@hotmail.com"
      }
    },
    {
      "id": 18959,
      "venueId": 5,
      "location": {
        "postalCode": "63-513",
        "name": "Świdnik"
      },
      "pricePerNightInEur": 11.85,
      "rating": 3.35,
      "capacity": 4,
      "name": "victorious-trowel",
      "albumId": 5,
      "description": "Est est eligendi minus aut iure numquam assumenda. Ipsam inventore eos odio quam ullam nam soluta voluptate. Vero nobis cum. Dicta reiciendis fuga repellendus. Dicta dicta eius alias id dolores accusantium hic perspiciatis atque. Aliquid minima est expedita quod.",
      "features": [
        "voluptatibus",
        "impedit",
        "in",
        "accusamus",
        "minus",
        "quibusdam",
        "odio"
      ],
      "sleepingDetails": {
        "maxCapacity": 8,
        "amountOfBeds": 2
      },
      "checkInHour": "4pm",
      "checkOutHour": "10am",
      "distanceFromCityCenterInKM": 6,
      "contactDetails": {
        "phone": "81-293-81-36",
        "email": "Ariadna_Szczygie@yahoo.com"
      }
    },
    {
      "id": 16756,
      "venueId": 6,
      "location": {
        "postalCode": "55-074",
        "name": "Kętrzyn"
      },
      "pricePerNightInEur": 13.8,
      "rating": 4.85,
      "capacity": 3,
      "name": "incompatible-homicide",
      "albumId": 6,
      "description": "Nemo animi natus autem beatae. Unde commodi sequi consequatur maiores deserunt quod doloribus. Omnis iure eaque esse alias sunt doloremque odit. Officiis possimus ipsam temporibus et labore ad.",
      "features": [
        "ullam",
        "in",
        "praesentium",
        "atque",
        "architecto",
        "excepturi",
        "iusto"
      ],
      "sleepingDetails": {
        "maxCapacity": 3,
        "amountOfBeds": 1
      },
      "checkInHour": "4pm",
      "checkOutHour": "10am",
      "distanceFromCityCenterInKM": 7,
      "contactDetails": {
        "phone": "13-682-46-44",
        "email": "Gabriela35@gmail.com"
      }
    },
    {
      "id": 3330,
      "venueId": 7,
      "location": {
        "postalCode": "12-488",
        "name": "Działdowo"
      },
      "pricePerNightInEur": 18.38,
      "rating": 3.61,
      "capacity": 1,
      "name": "buttery-help",
      "albumId": 7,
      "description": "Ut modi inventore autem rerum quod voluptates dignissimos porro mollitia. Tempora dolor velit deleniti quas laborum tenetur. Deserunt earum praesentium. Fuga officia consectetur incidunt fugit.",
      "features": [
        "perferendis",
        "assumenda",
        "optio",
        "animi",
        "eligendi",
        "esse",
        "explicabo"
      ],
      "sleepingDetails": {
        "maxCapacity": 7,
        "amountOfBeds": 1
      },
      "checkInHour": "4pm",
      "checkOutHour": "10am",
      "distanceFromCityCenterInKM": 4,
      "contactDetails": {
        "phone": "81-308-59-09",
        "email": "Daniel_Piekarski94@hotmail.com"
      }
    },
    {
      "id": 5287,
      "venueId": 8,
      "location": {
        "postalCode": "27-483",
        "name": "Orneta"
      },
      "pricePerNightInEur": 33.6,
      "rating": 2.73,
      "capacity": 6,
      "name": "short-term-gasoline",
      "albumId": 8,
      "description": "Consequuntur libero enim reprehenderit veritatis dolorem quos provident. Itaque nisi impedit neque nobis ab quam officiis. Necessitatibus libero quos assumenda corporis.",
      "features": [
        "neque",
        "labore",
        "amet",
        "fugit",
        "aperiam",
        "ducimus",
        "ipsa",
        "aliquid",
        "animi"
      ],
      "sleepingDetails": {
        "maxCapacity": 8,
        "amountOfBeds": 4
      },
      "checkInHour": "4pm",
      "checkOutHour": "10am",
      "distanceFromCityCenterInKM": 10,
      "contactDetails": {
        "phone": "34-172-65-91",
        "email": "Edwin35@hotmail.com"
      }
    },
    {
      "id": 65324,
      "venueId": 9,
      "location": {
        "postalCode": "37-783",
        "name": "Syców"
      },
      "pricePerNightInEur": 32.24,
      "rating": 2.57,
      "capacity": 4,
      "name": "musty-twister",
      "albumId": 9,
      "description": "Sed animi atque placeat mollitia cupiditate delectus corrupti ipsa. Corporis dolores fugiat magnam ipsam temporibus et. Laboriosam repudiandae similique velit fugiat. Tenetur ullam deleniti culpa commodi expedita soluta sit labore atque. Eveniet itaque eaque repudiandae expedita laboriosam quis sapiente quisquam sunt. Ad totam sint maxime impedit quos hic reiciendis vero.",
      "features": [
        "tempore",
        "quam",
        "eligendi",
        "ad",
        "architecto",
        "aliquam"
      ],
      "sleepingDetails": {
        "maxCapacity": 4,
        "amountOfBeds": 4
      },
      "checkInHour": "4pm",
      "checkOutHour": "10am",
      "distanceFromCityCenterInKM": 5,
      "contactDetails": {
        "phone": "95-687-46-07",
        "email": "Lucjan_Tomys17@hotmail.com"
      }
    },
    {
      "id": 9362,
      "venueId": 10,
      "location": {
        "postalCode": "11-604",
        "name": "Barlinek"
      },
      "pricePerNightInEur": 12.26,
      "rating": 4.95,
      "capacity": 4,
      "name": "soggy-scanner",
      "albumId": 10,
      "description": "Qui praesentium beatae sed. Debitis beatae ea similique laudantium perspiciatis ipsum at libero odio. Assumenda laudantium doloribus perferendis ad fugiat occaecati quam. Aspernatur ducimus nam ipsam qui perferendis deserunt recusandae numquam.",
      "features": [
        "at",
        "veniam",
        "optio",
        "cupiditate",
        "adipisci",
        "inventore",
        "repellendus"
      ],
      "sleepingDetails": {
        "maxCapacity": 7,
        "amountOfBeds": 1
      },
      "checkInHour": "4pm",
      "checkOutHour": "10am",
      "distanceFromCityCenterInKM": 11,
      "contactDetails": {
        "phone": "86-557-08-01",
        "email": "Samuel.Jakubowski@hotmail.com"
      }
    },
    {
      "id": 32859,
      "venueId": 11,
      "location": {
        "postalCode": "97-222",
        "name": "Chełmek"
      },
      "pricePerNightInEur": 20.96,
      "rating": 2.19,
      "capacity": 1,
      "name": "trifling-chess",
      "albumId": 11,
      "description": "Voluptatem distinctio ratione architecto vel ullam. Quibusdam deserunt explicabo quos quaerat architecto maxime vero. Veniam natus optio tempore fugiat.",
      "features": [
        "non",
        "illum",
        "distinctio",
        "quo",
        "ab",
        "sint",
        "accusantium"
      ],
      "sleepingDetails": {
        "maxCapacity": 4,
        "amountOfBeds": 1
      },
      "checkInHour": "4pm",
      "checkOutHour": "10am",
      "distanceFromCityCenterInKM": 4,
      "contactDetails": {
        "phone": "17-675-23-75",
        "email": "Paulina.Baranowski45@hotmail.com"
      }
    },
    {
      "id": 22433,
      "venueId": 12,
      "location": {
        "postalCode": "66-955",
        "name": "Dzierżoniów"
      },
      "pricePerNightInEur": 29.98,
      "rating": 4.32,
      "capacity": 3,
      "name": "bronze-unique",
      "albumId": 12,
      "description": "Officia praesentium nostrum veritatis nobis occaecati est. Dignissimos occaecati minima itaque quisquam nesciunt. Iusto nesciunt doloribus optio ipsum tempora. Nostrum quod molestias commodi magnam eligendi maiores eius error atque.",
      "features": [
        "doloremque",
        "eligendi",
        "rem",
        "amet",
        "ipsam",
        "temporibus",
        "quia",
        "esse",
        "molestiae"
      ],
      "sleepingDetails": {
        "maxCapacity": 8,
        "amountOfBeds": 3
      },
      "checkInHour": "4pm",
      "checkOutHour": "10am",
      "distanceFromCityCenterInKM": 15,
      "contactDetails": {
        "phone": "94-684-52-37",
        "email": "Natanael47@gmail.com"
      }
    },
    {
      "id": 66181,
      "venueId": 13,
      "location": {
        "postalCode": "23-075",
        "name": "Tarnogród"
      },
      "pricePerNightInEur": 23.18,
      "rating": 1.28,
      "capacity": 5,
      "name": "ornate-turnip",
      "albumId": 13,
      "description": "Exercitationem animi ipsum deserunt ea minima quisquam nesciunt repudiandae similique. Laboriosam quod ducimus omnis enim ad vel hic. Fugiat laudantium error voluptatem est. Vitae voluptate expedita quod neque cupiditate veritatis veritatis.",
      "features": [
        "nulla",
        "earum",
        "dolore",
        "voluptatibus",
        "cum",
        "sunt",
        "asperiores",
        "aperiam",
        "atque"
      ],
      "sleepingDetails": {
        "maxCapacity": 7,
        "amountOfBeds": 5
      },
      "checkInHour": "4pm",
      "checkOutHour": "10am",
      "distanceFromCityCenterInKM": 10,
      "contactDetails": {
        "phone": "24-679-88-75",
        "email": "Brygida24@hotmail.com"
      }
    },
    {
      "id": 19798,
      "venueId": 14,
      "location": {
        "postalCode": "93-331",
        "name": "Sieraków"
      },
      "pricePerNightInEur": 26.11,
      "rating": 4.57,
      "capacity": 2,
      "name": "glum-wedge",
      "albumId": 14,
      "description": "Aliquid soluta veniam officiis explicabo corrupti. Atque officiis aperiam voluptates pariatur voluptas architecto. Quasi autem facilis id occaecati. Repellendus tenetur laudantium fugit qui totam ab maiores distinctio perferendis. Minima voluptate error placeat placeat.",
      "features": [
        "enim",
        "laborum",
        "non",
        "nihil",
        "mollitia",
        "numquam",
        "atque",
        "eum",
        "eos"
      ],
      "sleepingDetails": {
        "maxCapacity": 6,
        "amountOfBeds": 6
      },
      "checkInHour": "4pm",
      "checkOutHour": "10am",
      "distanceFromCityCenterInKM": 14,
      "contactDetails": {
        "phone": "95-441-65-92",
        "email": "Daniel_Kaszuba@hotmail.com"
      }
    },
    {
      "id": 11158,
      "venueId": 15,
      "location": {
        "postalCode": "50-699",
        "name": "Police"
      },
      "pricePerNightInEur": 23.46,
      "rating": 4.87,
      "capacity": 5,
      "name": "bare-reader",
      "albumId": 15,
      "description": "Aut repellat explicabo eos dolorem blanditiis neque itaque nihil quas. Eius laborum quos beatae voluptates natus. Eum facere doloremque modi. Blanditiis ipsam et ullam. Vitae culpa autem. Ab molestiae molestias autem esse quia suscipit.",
      "features": [
        "reprehenderit",
        "omnis",
        "dolor",
        "eligendi",
        "tempora",
        "placeat"
      ],
      "sleepingDetails": {
        "maxCapacity": 6,
        "amountOfBeds": 1
      },
      "checkInHour": "4pm",
      "checkOutHour": "10am",
      "distanceFromCityCenterInKM": 4,
      "contactDetails": {
        "phone": "17-865-90-10",
        "email": "Penelopa_Woniak@gmail.com"
      }
    },
    {
      "id": 87932,
      "venueId": 16,
      "location": {
        "postalCode": "12-869",
        "name": "Gryfów Śląski"
      },
      "pricePerNightInEur": 14.02,
      "rating": 4.19,
      "capacity": 5,
      "name": "inexperienced-legend",
      "albumId": 16,
      "description": "Perferendis harum earum. Laboriosam eius saepe nostrum tempore aspernatur harum. Nobis nostrum necessitatibus ipsum fugiat reprehenderit corporis enim minima. Possimus ipsam repudiandae minus.",
      "features": [
        "vero",
        "veniam",
        "dolor",
        "sequi",
        "ducimus",
        "itaque",
        "occaecati",
        "recusandae",
        "ipsa",
        "accusantium"
      ],
      "sleepingDetails": {
        "maxCapacity": 8,
        "amountOfBeds": 2
      },
      "checkInHour": "4pm",
      "checkOutHour": "10am",
      "distanceFromCityCenterInKM": 1,
      "contactDetails": {
        "phone": "16-719-53-72",
        "email": "Gertruda82@gmail.com"
      }
    },
    {
      "id": 96742,
      "venueId": 17,
      "location": {
        "postalCode": "28-636",
        "name": "Kętrzyn"
      },
      "pricePerNightInEur": 13.88,
      "rating": 4.73,
      "capacity": 8,
      "name": "querulous-warning",
      "albumId": 17,
      "description": "Debitis quae facere. Voluptatum vero recusandae deserunt sapiente corrupti provident sint soluta. Modi eos pariatur maxime omnis atque.",
      "features": [
        "sapiente",
        "quis",
        "praesentium",
        "quaerat",
        "qui",
        "id",
        "sequi"
      ],
      "sleepingDetails": {
        "maxCapacity": 3,
        "amountOfBeds": 5
      },
      "checkInHour": "4pm",
      "checkOutHour": "10am",
      "distanceFromCityCenterInKM": 15,
      "contactDetails": {
        "phone": "89-395-02-08",
        "email": "Leon.Gsiorowski@yahoo.com"
      }
    },
    {
      "id": 10650,
      "venueId": 18,
      "location": {
        "postalCode": "14-978",
        "name": "Zwierzyniec"
      },
      "pricePerNightInEur": 17.67,
      "rating": 3.88,
      "capacity": 3,
      "name": "pointed-slaw",
      "albumId": 18,
      "description": "Laudantium officia cumque. Aliquid facilis minus in molestiae eum. Qui veniam culpa eos explicabo. Doloremque odio ratione quas sit placeat enim. Enim odio praesentium corporis nam repudiandae ad.",
      "features": [
        "id",
        "eligendi",
        "necessitatibus",
        "quas",
        "harum",
        "ipsam",
        "odio",
        "ex",
        "occaecati"
      ],
      "sleepingDetails": {
        "maxCapacity": 5,
        "amountOfBeds": 1
      },
      "checkInHour": "4pm",
      "checkOutHour": "10am",
      "distanceFromCityCenterInKM": 10,
      "contactDetails": {
        "phone": "16-077-60-33",
        "email": "Monika_Kowalewski@yahoo.com"
      }
    },
    {
      "id": 43053,
      "venueId": 19,
      "location": {
        "postalCode": "90-275",
        "name": "Brodnica"
      },
      "pricePerNightInEur": 10.67,
      "rating": 3.34,
      "capacity": 4,
      "name": "leafy-venison",
      "albumId": 19,
      "description": "Autem iste et consectetur error eos dicta voluptatem pariatur. Saepe aperiam illum voluptates fugiat modi iusto distinctio quidem esse. Quibusdam quae molestiae ducimus illo eos sed nemo voluptate quaerat. Esse et doloremque harum odio.",
      "features": [
        "ad",
        "vitae",
        "laborum",
        "aut",
        "tempora",
        "illo",
        "fuga"
      ],
      "sleepingDetails": {
        "maxCapacity": 7,
        "amountOfBeds": 2
      },
      "checkInHour": "4pm",
      "checkOutHour": "10am",
      "distanceFromCityCenterInKM": 1,
      "contactDetails": {
        "phone": "33-755-68-94",
        "email": "Rajmund81@yahoo.com"
      }
    },
    {
      "id": 12004,
      "venueId": 20,
      "location": {
        "postalCode": "02-628",
        "name": "Malbork"
      },
      "pricePerNightInEur": 26.55,
      "rating": 3.36,
      "capacity": 3,
      "name": "made-up-technician",
      "albumId": 20,
      "description": "Nulla eos officia cumque. Quisquam cupiditate et quae incidunt nihil dignissimos nisi iure adipisci. Odit nam soluta aliquam quo eligendi voluptatum aut illo alias.",
      "features": [
        "ipsum",
        "veritatis",
        "quidem",
        "cum",
        "eum",
        "dolorem",
        "ipsa",
        "provident",
        "facilis",
        "pariatur"
      ],
      "sleepingDetails": {
        "maxCapacity": 3,
        "amountOfBeds": 6
      },
      "checkInHour": "4pm",
      "checkOutHour": "10am",
      "distanceFromCityCenterInKM": 1,
      "contactDetails": {
        "phone": "52-108-28-88",
        "email": "Cecyliusz61@gmail.com"
      }
    },
    {
      "id": 15694,
      "venueId": 21,
      "location": {
        "postalCode": "61-773",
        "name": "Elbląg"
      },
      "pricePerNightInEur": 27.36,
      "rating": 2.26,
      "capacity": 6,
      "name": "disguised-territory",
      "albumId": 21,
      "description": "Numquam earum voluptate consequuntur vero. Accusantium culpa deserunt sint adipisci nulla. Ad quas illum beatae odio.",
      "features": [
        "voluptatum",
        "mollitia",
        "voluptas",
        "ad",
        "error",
        "delectus",
        "error",
        "veritatis",
        "blanditiis"
      ],
      "sleepingDetails": {
        "maxCapacity": 5,
        "amountOfBeds": 5
      },
      "checkInHour": "4pm",
      "checkOutHour": "10am",
      "distanceFromCityCenterInKM": 5,
      "contactDetails": {
        "phone": "56-196-07-16",
        "email": "Arkadiusz.Jasiski@hotmail.com"
      }
    },
    {
      "id": 55345,
      "venueId": 22,
      "location": {
        "postalCode": "01-325",
        "name": "Biała Piska"
      },
      "pricePerNightInEur": 27.92,
      "rating": 4.95,
      "capacity": 7,
      "name": "long-term-subcomponent",
      "albumId": 22,
      "description": "Excepturi aliquid neque velit rem asperiores pariatur vero. Reprehenderit sunt rerum nam rem debitis atque. Numquam id facere assumenda delectus.",
      "features": [
        "tempora",
        "voluptates",
        "voluptas",
        "error",
        "laborum",
        "eum",
        "ipsum",
        "praesentium",
        "officia"
      ],
      "sleepingDetails": {
        "maxCapacity": 4,
        "amountOfBeds": 6
      },
      "checkInHour": "4pm",
      "checkOutHour": "10am",
      "distanceFromCityCenterInKM": 12,
      "contactDetails": {
        "phone": "13-250-65-10",
        "email": "Anastazja.Wsik@hotmail.com"
      }
    },
    {
      "id": 28953,
      "venueId": 23,
      "location": {
        "postalCode": "22-183",
        "name": "Opalenica"
      },
      "pricePerNightInEur": 10.7,
      "rating": 2.46,
      "capacity": 3,
      "name": "unwieldy-subexpression",
      "albumId": 23,
      "description": "Consectetur placeat veniam explicabo dolores laudantium nihil ipsam earum enim. Facere sint ipsam est. Quas neque maxime laboriosam est mollitia quos tenetur aut aspernatur. Non aperiam ipsa sapiente. Modi officiis sit unde.",
      "features": [
        "eos",
        "cumque",
        "qui",
        "facilis",
        "repudiandae",
        "provident",
        "consectetur"
      ],
      "sleepingDetails": {
        "maxCapacity": 5,
        "amountOfBeds": 5
      },
      "checkInHour": "4pm",
      "checkOutHour": "10am",
      "distanceFromCityCenterInKM": 2,
      "contactDetails": {
        "phone": "86-362-96-99",
        "email": "Cyra32@yahoo.com"
      }
    },
    {
      "id": 98198,
      "venueId": 24,
      "location": {
        "postalCode": "38-320",
        "name": "Lędziny"
      },
      "pricePerNightInEur": 23.21,
      "rating": 4.54,
      "capacity": 3,
      "name": "somber-back-up",
      "albumId": 24,
      "description": "Dicta facere sit at itaque quos dignissimos ducimus cum. Quae sit deleniti soluta asperiores doloribus at non. A voluptatibus ipsa dicta incidunt ut blanditiis voluptate minus corrupti. Soluta corrupti ratione incidunt debitis animi nihil.",
      "features": [
        "delectus",
        "natus",
        "quae",
        "quo",
        "cupiditate",
        "cupiditate",
        "suscipit",
        "eligendi",
        "corrupti"
      ],
      "sleepingDetails": {
        "maxCapacity": 4,
        "amountOfBeds": 3
      },
      "checkInHour": "4pm",
      "checkOutHour": "10am",
      "distanceFromCityCenterInKM": 6,
      "contactDetails": {
        "phone": "46-243-48-81",
        "email": "Pelagia29@gmail.com"
      }
    },
    {
      "id": 22937,
      "venueId": 25,
      "location": {
        "postalCode": "66-391",
        "name": "Podkowa Leśna"
      },
      "pricePerNightInEur": 13.65,
      "rating": 1.93,
      "capacity": 7,
      "name": "minor-alarm",
      "albumId": 25,
      "description": "Iste doloribus delectus dolorum ab. Non consectetur repellat quo voluptatibus fugit eius. Iste soluta occaecati ipsa eveniet quis nemo. Voluptatum amet ipsa praesentium aliquid nisi deleniti veniam.",
      "features": [
        "quos",
        "odit",
        "expedita",
        "distinctio",
        "nostrum",
        "beatae"
      ],
      "sleepingDetails": {
        "maxCapacity": 3,
        "amountOfBeds": 1
      },
      "checkInHour": "4pm",
      "checkOutHour": "10am",
      "distanceFromCityCenterInKM": 5,
      "contactDetails": {
        "phone": "24-255-67-41",
        "email": "Cecylia.Bogusz@yahoo.com"
      }
    },
    {
      "id": 80616,
      "venueId": 26,
      "location": {
        "postalCode": "79-560",
        "name": "Stąporków"
      },
      "pricePerNightInEur": 22.31,
      "rating": 2.47,
      "capacity": 5,
      "name": "weary-barbiturate",
      "albumId": 26,
      "description": "Iusto dolorum repellat consequuntur quod. Sint vel incidunt necessitatibus dolores. Odit quam cum corporis quisquam similique voluptate. Magni illum quam ipsum amet voluptate.",
      "features": [
        "deserunt",
        "aliquam",
        "itaque",
        "accusamus",
        "eius",
        "veniam",
        "fugiat",
        "officia",
        "aut"
      ],
      "sleepingDetails": {
        "maxCapacity": 8,
        "amountOfBeds": 3
      },
      "checkInHour": "4pm",
      "checkOutHour": "10am",
      "distanceFromCityCenterInKM": 14,
      "contactDetails": {
        "phone": "63-945-93-99",
        "email": "Brygida.Koodziejczyk@yahoo.com"
      }
    },
    {
      "id": 62706,
      "venueId": 27,
      "location": {
        "postalCode": "86-010",
        "name": "Oleśnica"
      },
      "pricePerNightInEur": 14.93,
      "rating": 2.14,
      "capacity": 5,
      "name": "anxious-tactics",
      "albumId": 27,
      "description": "Reprehenderit quod voluptatibus quos unde iste. Illum nam officia. Quod ipsa at tempora non suscipit. Dicta esse non eos minima cumque.",
      "features": [
        "hic",
        "magnam",
        "incidunt",
        "totam",
        "molestias",
        "nostrum",
        "ipsam"
      ],
      "sleepingDetails": {
        "maxCapacity": 4,
        "amountOfBeds": 6
      },
      "checkInHour": "4pm",
      "checkOutHour": "10am",
      "distanceFromCityCenterInKM": 14,
      "contactDetails": {
        "phone": "67-190-94-84",
        "email": "Porfiriusz23@yahoo.com"
      }
    },
    {
      "id": 85704,
      "venueId": 28,
      "location": {
        "postalCode": "56-790",
        "name": "Strzelno"
      },
      "pricePerNightInEur": 32.76,
      "rating": 4.35,
      "capacity": 1,
      "name": "soupy-drag",
      "albumId": 28,
      "description": "Suscipit error molestias illum animi ad nesciunt a nam. Consequuntur deleniti maiores quae ipsum dolorum ullam dicta. Labore ut saepe dicta eius distinctio eligendi illo.",
      "features": [
        "dolore",
        "totam",
        "facilis",
        "facere",
        "vitae",
        "beatae",
        "ad",
        "necessitatibus",
        "in",
        "nostrum"
      ],
      "sleepingDetails": {
        "maxCapacity": 4,
        "amountOfBeds": 5
      },
      "checkInHour": "4pm",
      "checkOutHour": "10am",
      "distanceFromCityCenterInKM": 6,
      "contactDetails": {
        "phone": "84-592-18-28",
        "email": "Noemi.Kostecki86@yahoo.com"
      }
    },
    {
      "id": 26081,
      "venueId": 29,
      "location": {
        "postalCode": "54-263",
        "name": "Poręba"
      },
      "pricePerNightInEur": 34.4,
      "rating": 1.47,
      "capacity": 7,
      "name": "untidy-atm",
      "albumId": 29,
      "description": "Temporibus ad eum illo minima architecto nobis itaque at. Ea odio ipsa pariatur blanditiis debitis. Provident rem totam fugiat beatae perferendis autem porro eos. Incidunt consequuntur tenetur placeat sit. Dolorem officia possimus hic voluptatem omnis modi possimus labore.",
      "features": [
        "nisi",
        "totam",
        "officia",
        "quae",
        "quidem",
        "molestiae"
      ],
      "sleepingDetails": {
        "maxCapacity": 4,
        "amountOfBeds": 4
      },
      "checkInHour": "4pm",
      "checkOutHour": "10am",
      "distanceFromCityCenterInKM": 14,
      "contactDetails": {
        "phone": "67-720-22-09",
        "email": "Porfiriusz.Twardowski@yahoo.com"
      }
    },
    {
      "id": 38334,
      "venueId": 30,
      "location": {
        "postalCode": "70-668",
        "name": "Sępopol"
      },
      "pricePerNightInEur": 10.51,
      "rating": 1.88,
      "capacity": 3,
      "name": "rundown-corduroy",
      "albumId": 30,
      "description": "Unde earum saepe tenetur ullam quae libero hic. Rerum fuga laboriosam eos pariatur ad sed perspiciatis. Voluptatem quibusdam fugit fugiat. Eligendi dolores error omnis ex cumque perferendis. Eveniet modi aliquid. Et unde architecto amet dignissimos nihil dolores aliquid.",
      "features": [
        "debitis",
        "non",
        "porro",
        "iure",
        "dignissimos",
        "ea",
        "esse",
        "saepe",
        "sunt",
        "cumque"
      ],
      "sleepingDetails": {
        "maxCapacity": 6,
        "amountOfBeds": 1
      },
      "checkInHour": "4pm",
      "checkOutHour": "10am",
      "distanceFromCityCenterInKM": 7,
      "contactDetails": {
        "phone": "15-761-43-52",
        "email": "Zachary36@yahoo.com"
      }
    },
    {
      "id": 99630,
      "venueId": 31,
      "location": {
        "postalCode": "00-255",
        "name": "Sulejów"
      },
      "pricePerNightInEur": 20.79,
      "rating": 1.2,
      "capacity": 8,
      "name": "assured-chops",
      "albumId": 31,
      "description": "Totam qui amet ducimus odit id. Reprehenderit alias fugit suscipit debitis omnis qui eius vero. Officiis maiores rem iste asperiores nostrum libero quod doloremque ea. Illum totam exercitationem similique consectetur aliquam totam enim ducimus. Nobis voluptate placeat fuga aliquam quod iusto.",
      "features": [
        "voluptatibus",
        "neque",
        "fugiat",
        "eligendi",
        "voluptate",
        "id"
      ],
      "sleepingDetails": {
        "maxCapacity": 5,
        "amountOfBeds": 3
      },
      "checkInHour": "4pm",
      "checkOutHour": "10am",
      "distanceFromCityCenterInKM": 10,
      "contactDetails": {
        "phone": "17-816-32-26",
        "email": "Ewelina52@yahoo.com"
      }
    },
    {
      "id": 82571,
      "venueId": 32,
      "location": {
        "postalCode": "76-124",
        "name": "Zambrów"
      },
      "pricePerNightInEur": 33.26,
      "rating": 1.97,
      "capacity": 4,
      "name": "false-sense",
      "albumId": 32,
      "description": "Ipsam saepe labore. Asperiores iure dolorum sit. Officiis id suscipit aut quas labore voluptas. Quae molestias odit explicabo eos dolorum cupiditate officiis. Facilis et pariatur velit in autem. Voluptas iusto incidunt aperiam.",
      "features": [
        "unde",
        "fugit",
        "libero",
        "ducimus",
        "quae",
        "ipsam",
        "cupiditate",
        "libero",
        "vitae",
        "amet"
      ],
      "sleepingDetails": {
        "maxCapacity": 5,
        "amountOfBeds": 6
      },
      "checkInHour": "4pm",
      "checkOutHour": "10am",
      "distanceFromCityCenterInKM": 15,
      "contactDetails": {
        "phone": "41-714-20-36",
        "email": "Irena_Ksiek@hotmail.com"
      }
    },
    {
      "id": 83669,
      "venueId": 33,
      "location": {
        "postalCode": "54-113",
        "name": "Malbork"
      },
      "pricePerNightInEur": 29.59,
      "rating": 3.44,
      "capacity": 8,
      "name": "forsaken-immortal",
      "albumId": 33,
      "description": "Incidunt non impedit voluptatibus eaque quod consequatur aliquid. At corrupti libero odit deleniti corporis. Assumenda minima magnam libero reprehenderit quod impedit.",
      "features": [
        "a",
        "voluptatibus",
        "animi",
        "eaque",
        "illum",
        "unde",
        "magni",
        "amet",
        "error",
        "voluptate"
      ],
      "sleepingDetails": {
        "maxCapacity": 6,
        "amountOfBeds": 4
      },
      "checkInHour": "4pm",
      "checkOutHour": "10am",
      "distanceFromCityCenterInKM": 3,
      "contactDetails": {
        "phone": "55-363-85-23",
        "email": "Filemon.Bana53@yahoo.com"
      }
    },
    {
      "id": 17934,
      "venueId": 34,
      "location": {
        "postalCode": "65-955",
        "name": "Rzepin"
      },
      "pricePerNightInEur": 31.2,
      "rating": 2.76,
      "capacity": 4,
      "name": "ill-fated-sick",
      "albumId": 34,
      "description": "Assumenda voluptatibus cum impedit cum velit delectus dolorum tempore placeat. Necessitatibus aspernatur vero illo beatae saepe est ipsam consectetur. Labore quae necessitatibus quod quidem ratione fugit repellat. Excepturi corrupti aperiam enim sapiente culpa laborum exercitationem ex. Cupiditate explicabo possimus quod doloribus numquam molestiae quis.",
      "features": [
        "reiciendis",
        "ab",
        "aliquam",
        "voluptatibus",
        "dolorum",
        "ullam",
        "amet",
        "aperiam"
      ],
      "sleepingDetails": {
        "maxCapacity": 5,
        "amountOfBeds": 2
      },
      "checkInHour": "4pm",
      "checkOutHour": "10am",
      "distanceFromCityCenterInKM": 4,
      "contactDetails": {
        "phone": "17-130-99-01",
        "email": "Nestor.Sikorski@hotmail.com"
      }
    },
    {
      "id": 93398,
      "venueId": 35,
      "location": {
        "postalCode": "57-456",
        "name": "Zbąszynek"
      },
      "pricePerNightInEur": 29.35,
      "rating": 3.84,
      "capacity": 5,
      "name": "melodic-crook",
      "albumId": 35,
      "description": "Inventore ex nobis natus modi optio ipsa ipsum provident. Modi consequuntur at quia natus distinctio. Expedita ea ipsam amet optio similique voluptate. Quaerat porro eaque sunt debitis illo quibusdam deleniti.",
      "features": [
        "aspernatur",
        "distinctio",
        "atque",
        "quos",
        "est",
        "officiis",
        "incidunt",
        "et"
      ],
      "sleepingDetails": {
        "maxCapacity": 4,
        "amountOfBeds": 3
      },
      "checkInHour": "4pm",
      "checkOutHour": "10am",
      "distanceFromCityCenterInKM": 13,
      "contactDetails": {
        "phone": "58-956-88-31",
        "email": "Oskar_Szymkowiak@gmail.com"
      }
    },
    {
      "id": 90835,
      "venueId": 36,
      "location": {
        "postalCode": "08-232",
        "name": "Stronie Śląskie"
      },
      "pricePerNightInEur": 18.7,
      "rating": 2.9,
      "capacity": 7,
      "name": "super-bather",
      "albumId": 36,
      "description": "Exercitationem placeat ea quis hic nobis placeat. Enim enim iure voluptatem. Tenetur tempora quos fugiat facere repellat a culpa. Ex debitis vero facilis consectetur aperiam quasi dicta.",
      "features": [
        "delectus",
        "deleniti",
        "temporibus",
        "incidunt",
        "expedita",
        "repellat"
      ],
      "sleepingDetails": {
        "maxCapacity": 3,
        "amountOfBeds": 4
      },
      "checkInHour": "4pm",
      "checkOutHour": "10am",
      "distanceFromCityCenterInKM": 7,
      "contactDetails": {
        "phone": "18-295-80-53",
        "email": "Emil0@hotmail.com"
      }
    },
    {
      "id": 96870,
      "venueId": 37,
      "location": {
        "postalCode": "29-432",
        "name": "Poddębice"
      },
      "pricePerNightInEur": 22.65,
      "rating": 4.55,
      "capacity": 7,
      "name": "phony-bookcase",
      "albumId": 37,
      "description": "Perspiciatis pariatur quo consequatur ducimus mollitia. Id animi et aut accusamus totam. Harum cumque mollitia nemo eum. Eaque animi sequi. Expedita temporibus autem odit error.",
      "features": [
        "nam",
        "quod",
        "debitis",
        "quibusdam",
        "perspiciatis",
        "blanditiis",
        "debitis",
        "molestias"
      ],
      "sleepingDetails": {
        "maxCapacity": 5,
        "amountOfBeds": 3
      },
      "checkInHour": "4pm",
      "checkOutHour": "10am",
      "distanceFromCityCenterInKM": 7,
      "contactDetails": {
        "phone": "65-379-90-38",
        "email": "Krzysztof_Janusz83@hotmail.com"
      }
    },
    {
      "id": 62267,
      "venueId": 38,
      "location": {
        "postalCode": "52-290",
        "name": "Ozorków"
      },
      "pricePerNightInEur": 24,
      "rating": 2.51,
      "capacity": 2,
      "name": "gaseous-destination",
      "albumId": 38,
      "description": "Accusamus explicabo maiores repellat saepe corrupti doloremque minus. Unde accusantium quam odit commodi quidem. Voluptatibus cum tenetur magnam aspernatur neque dolor porro voluptate accusantium. Maxime necessitatibus ipsum possimus nostrum molestias magni. Repudiandae quidem voluptate occaecati ipsam itaque. Iure accusantium voluptates fugiat dolorum maxime exercitationem quisquam.",
      "features": [
        "modi",
        "excepturi",
        "officiis",
        "optio",
        "dolorum",
        "laudantium",
        "sit",
        "quas",
        "asperiores",
        "suscipit"
      ],
      "sleepingDetails": {
        "maxCapacity": 8,
        "amountOfBeds": 6
      },
      "checkInHour": "4pm",
      "checkOutHour": "10am",
      "distanceFromCityCenterInKM": 8,
      "contactDetails": {
        "phone": "48-295-14-04",
        "email": "Zoe44@yahoo.com"
      }
    },
    {
      "id": 96727,
      "venueId": 39,
      "location": {
        "postalCode": "31-200",
        "name": "Kock"
      },
      "pricePerNightInEur": 31.55,
      "rating": 3.25,
      "capacity": 3,
      "name": "boiling-load",
      "albumId": 39,
      "description": "Facilis commodi quidem qui voluptas. Illo ratione sint nobis repudiandae reiciendis. Quisquam voluptate tempore nesciunt sequi doloribus ratione eum.",
      "features": [
        "animi",
        "eveniet",
        "dolor",
        "deleniti",
        "quas",
        "maiores",
        "minus",
        "suscipit",
        "maxime",
        "excepturi"
      ],
      "sleepingDetails": {
        "maxCapacity": 3,
        "amountOfBeds": 6
      },
      "checkInHour": "4pm",
      "checkOutHour": "10am",
      "distanceFromCityCenterInKM": 8,
      "contactDetails": {
        "phone": "56-369-15-62",
        "email": "Arseniusz29@gmail.com"
      }
    },
    {
      "id": 90651,
      "venueId": 40,
      "location": {
        "postalCode": "48-229",
        "name": "Kąty Wrocławskie"
      },
      "pricePerNightInEur": 26.87,
      "rating": 2.66,
      "capacity": 5,
      "name": "puny-gem",
      "albumId": 40,
      "description": "Itaque perspiciatis ipsa facilis saepe beatae ex. Beatae hic natus impedit nihil minus fugit impedit ratione corporis. Quos officia odit voluptate id deserunt iusto optio voluptates.",
      "features": [
        "aliquid",
        "ad",
        "saepe",
        "magni",
        "nam",
        "sint",
        "eligendi",
        "esse",
        "praesentium",
        "quis"
      ],
      "sleepingDetails": {
        "maxCapacity": 6,
        "amountOfBeds": 4
      },
      "checkInHour": "4pm",
      "checkOutHour": "10am",
      "distanceFromCityCenterInKM": 2,
      "contactDetails": {
        "phone": "74-744-08-35",
        "email": "Diana.Piotrowicz99@gmail.com"
      }
    },
    {
      "id": 62165,
      "venueId": 41,
      "location": {
        "postalCode": "33-016",
        "name": "Sejny"
      },
      "pricePerNightInEur": 10.79,
      "rating": 2.34,
      "capacity": 7,
      "name": "reckless-ringworm",
      "albumId": 41,
      "description": "Inventore ea praesentium praesentium error mollitia. Totam facilis ipsum ut consequuntur. Sequi laborum occaecati. Mollitia consequatur atque.",
      "features": [
        "sed",
        "voluptate",
        "distinctio",
        "error",
        "praesentium",
        "alias",
        "nobis",
        "amet",
        "voluptate",
        "ipsam"
      ],
      "sleepingDetails": {
        "maxCapacity": 7,
        "amountOfBeds": 2
      },
      "checkInHour": "4pm",
      "checkOutHour": "10am",
      "distanceFromCityCenterInKM": 8,
      "contactDetails": {
        "phone": "23-190-92-97",
        "email": "Kalistrat_Wojtkowiak@gmail.com"
      }
    },
    {
      "id": 39847,
      "venueId": 42,
      "location": {
        "postalCode": "56-074",
        "name": "Dąbrowa Górnicza"
      },
      "pricePerNightInEur": 11.44,
      "rating": 1.4,
      "capacity": 7,
      "name": "unlined-ginseng",
      "albumId": 42,
      "description": "Consequatur dolores natus voluptates occaecati doloremque nostrum. Delectus nemo iure occaecati magnam temporibus excepturi vitae ipsam. Harum harum ab. Vel ratione ex voluptates laudantium. Rem perspiciatis vero odio dolor aperiam id recusandae aliquid.",
      "features": [
        "necessitatibus",
        "incidunt",
        "perferendis",
        "sapiente",
        "consequuntur",
        "delectus"
      ],
      "sleepingDetails": {
        "maxCapacity": 4,
        "amountOfBeds": 5
      },
      "checkInHour": "4pm",
      "checkOutHour": "10am",
      "distanceFromCityCenterInKM": 15,
      "contactDetails": {
        "phone": "87-902-81-85",
        "email": "Olaf_Czarnecki@yahoo.com"
      }
    },
    {
      "id": 85278,
      "venueId": 43,
      "location": {
        "postalCode": "14-391",
        "name": "Myszków"
      },
      "pricePerNightInEur": 26.77,
      "rating": 4.11,
      "capacity": 7,
      "name": "knobby-solidity",
      "albumId": 43,
      "description": "Placeat rerum hic. Mollitia a assumenda quis excepturi ratione nemo. Optio quisquam minus minima expedita odit earum magni. Quo consectetur hic magnam similique et hic incidunt praesentium quae. Ab autem accusamus ipsam illum iusto ut doloribus mollitia nostrum. Unde assumenda animi fugiat dolorem voluptas voluptas alias.",
      "features": [
        "quae",
        "alias",
        "labore",
        "error",
        "ad",
        "quidem",
        "quasi",
        "distinctio"
      ],
      "sleepingDetails": {
        "maxCapacity": 7,
        "amountOfBeds": 3
      },
      "checkInHour": "4pm",
      "checkOutHour": "10am",
      "distanceFromCityCenterInKM": 13,
      "contactDetails": {
        "phone": "83-254-48-58",
        "email": "Eustracjusz59@gmail.com"
      }
    },
    {
      "id": 78842,
      "venueId": 44,
      "location": {
        "postalCode": "11-862",
        "name": "Osiek"
      },
      "pricePerNightInEur": 13.43,
      "rating": 1.3,
      "capacity": 7,
      "name": "waterlogged-bench",
      "albumId": 44,
      "description": "Dolores minima molestias corrupti officia consectetur harum eius ducimus fugit. Quibusdam tempora non repudiandae corrupti magnam consectetur. Excepturi error cumque. Dicta optio provident. Quae dicta laborum voluptatum magnam inventore.",
      "features": [
        "praesentium",
        "consectetur",
        "nisi",
        "commodi",
        "iusto",
        "adipisci",
        "ducimus",
        "laboriosam",
        "inventore",
        "ullam"
      ],
      "sleepingDetails": {
        "maxCapacity": 6,
        "amountOfBeds": 4
      },
      "checkInHour": "4pm",
      "checkOutHour": "10am",
      "distanceFromCityCenterInKM": 1,
      "contactDetails": {
        "phone": "25-283-67-36",
        "email": "Leonid46@gmail.com"
      }
    },
    {
      "id": 69050,
      "venueId": 45,
      "location": {
        "postalCode": "66-386",
        "name": "Kożuchów"
      },
      "pricePerNightInEur": 10.25,
      "rating": 4.8,
      "capacity": 6,
      "name": "firm-terrarium",
      "albumId": 45,
      "description": "Commodi natus dolor. Dolorum rerum eos officia itaque pariatur molestias enim commodi. Exercitationem voluptatem temporibus nisi. Optio laudantium aspernatur beatae sint illo quo vero. Possimus maiores ipsam voluptatem. Fugit consequuntur aliquid.",
      "features": [
        "nesciunt",
        "vero",
        "sit",
        "possimus",
        "architecto",
        "nostrum",
        "ad",
        "placeat"
      ],
      "sleepingDetails": {
        "maxCapacity": 3,
        "amountOfBeds": 4
      },
      "checkInHour": "4pm",
      "checkOutHour": "10am",
      "distanceFromCityCenterInKM": 7,
      "contactDetails": {
        "phone": "86-884-14-66",
        "email": "Gracja1@hotmail.com"
      }
    },
    {
      "id": 61715,
      "venueId": 46,
      "location": {
        "postalCode": "77-423",
        "name": "Ciechanowiec"
      },
      "pricePerNightInEur": 13.45,
      "rating": 3.86,
      "capacity": 8,
      "name": "bright-north",
      "albumId": 46,
      "description": "Autem aliquid dolorum. Corrupti accusamus fugit. Esse nulla consequatur expedita.",
      "features": [
        "placeat",
        "repudiandae",
        "officiis",
        "commodi",
        "error",
        "dolor",
        "sapiente",
        "error",
        "fuga",
        "veniam"
      ],
      "sleepingDetails": {
        "maxCapacity": 8,
        "amountOfBeds": 2
      },
      "checkInHour": "4pm",
      "checkOutHour": "10am",
      "distanceFromCityCenterInKM": 3,
      "contactDetails": {
        "phone": "65-739-04-46",
        "email": "Polikarp77@yahoo.com"
      }
    },
    {
      "id": 47770,
      "venueId": 47,
      "location": {
        "postalCode": "64-887",
        "name": "Krasnystaw"
      },
      "pricePerNightInEur": 26.2,
      "rating": 2.57,
      "capacity": 4,
      "name": "general-user",
      "albumId": 47,
      "description": "Quisquam aut natus officiis a quam. Aliquam veniam deleniti voluptatibus consectetur incidunt expedita. Pariatur quisquam blanditiis nostrum voluptate sit.",
      "features": [
        "aperiam",
        "tempore",
        "sit",
        "quasi",
        "laboriosam",
        "quia"
      ],
      "sleepingDetails": {
        "maxCapacity": 7,
        "amountOfBeds": 1
      },
      "checkInHour": "4pm",
      "checkOutHour": "10am",
      "distanceFromCityCenterInKM": 1,
      "contactDetails": {
        "phone": "12-482-73-21",
        "email": "Galfryd.Szatkowski99@gmail.com"
      }
    },
    {
      "id": 11016,
      "venueId": 48,
      "location": {
        "postalCode": "00-654",
        "name": "Głuchołazy"
      },
      "pricePerNightInEur": 21.12,
      "rating": 3.76,
      "capacity": 6,
      "name": "gregarious-mate",
      "albumId": 48,
      "description": "Facere nostrum id maxime illo vitae eligendi provident repudiandae. Fugiat quibusdam hic. Labore mollitia non.",
      "features": [
        "quam",
        "consectetur",
        "cupiditate",
        "quos",
        "dignissimos",
        "reiciendis",
        "natus",
        "explicabo"
      ],
      "sleepingDetails": {
        "maxCapacity": 8,
        "amountOfBeds": 3
      },
      "checkInHour": "4pm",
      "checkOutHour": "10am",
      "distanceFromCityCenterInKM": 13,
      "contactDetails": {
        "phone": "46-506-06-32",
        "email": "Arkadiusz.Mroczek70@gmail.com"
      }
    },
    {
      "id": 32157,
      "venueId": 49,
      "location": {
        "postalCode": "91-931",
        "name": "Skawina"
      },
      "pricePerNightInEur": 22.32,
      "rating": 3.19,
      "capacity": 3,
      "name": "yearly-due",
      "albumId": 49,
      "description": "Maxime debitis error voluptatum laborum non fuga ipsum illum. Unde at facere dolorum rem harum eaque exercitationem deserunt numquam. Dolorum error vero itaque nisi natus. Placeat a consequatur sit explicabo. Tempore porro provident aliquam.",
      "features": [
        "hic",
        "quam",
        "provident",
        "modi",
        "repellat",
        "dolorem"
      ],
      "sleepingDetails": {
        "maxCapacity": 4,
        "amountOfBeds": 6
      },
      "checkInHour": "4pm",
      "checkOutHour": "10am",
      "distanceFromCityCenterInKM": 15,
      "contactDetails": {
        "phone": "68-510-56-13",
        "email": "Krystian.Pietruszka83@hotmail.com"
      }
    },
    {
      "id": 85642,
      "venueId": 50,
      "location": {
        "postalCode": "53-560",
        "name": "Brok"
      },
      "pricePerNightInEur": 28.24,
      "rating": 1.44,
      "capacity": 6,
      "name": "wrong-cacao",
      "albumId": 50,
      "description": "Magni placeat nihil fuga repellat nobis illo eaque. Dolorem nostrum recusandae. Harum architecto adipisci. Similique amet commodi perspiciatis consequatur recusandae animi modi nemo voluptatibus. Amet officia mollitia porro. Quae enim rerum.",
      "features": [
        "tempora",
        "cumque",
        "nesciunt",
        "asperiores",
        "doloribus",
        "dolorem",
        "ipsum",
        "ipsum"
      ],
      "sleepingDetails": {
        "maxCapacity": 8,
        "amountOfBeds": 3
      },
      "checkInHour": "4pm",
      "checkOutHour": "10am",
      "distanceFromCityCenterInKM": 5,
      "contactDetails": {
        "phone": "18-377-90-20",
        "email": "Krystyna86@yahoo.com"
      }
    },
    {
      "id": 74156,
      "venueId": 51,
      "location": {
        "postalCode": "40-247",
        "name": "Goniądz"
      },
      "pricePerNightInEur": 20.21,
      "rating": 3.04,
      "capacity": 4,
      "name": "impassioned-earplug",
      "albumId": 51,
      "description": "Molestiae eveniet molestias totam. Libero laborum et fugiat molestias. Dicta nobis modi quasi tenetur consequuntur. Voluptatum ea dolore expedita repellendus facere ad incidunt. Natus quos incidunt. Sed quasi optio accusamus.",
      "features": [
        "cupiditate",
        "error",
        "aliquam",
        "autem",
        "repudiandae",
        "consequatur",
        "voluptas",
        "nostrum"
      ],
      "sleepingDetails": {
        "maxCapacity": 5,
        "amountOfBeds": 2
      },
      "checkInHour": "4pm",
      "checkOutHour": "10am",
      "distanceFromCityCenterInKM": 6,
      "contactDetails": {
        "phone": "12-387-85-81",
        "email": "Malwina67@yahoo.com"
      }
    },
    {
      "id": 30981,
      "venueId": 52,
      "location": {
        "postalCode": "16-235",
        "name": "Radlin"
      },
      "pricePerNightInEur": 26.35,
      "rating": 4.22,
      "capacity": 8,
      "name": "shimmering-shift",
      "albumId": 52,
      "description": "Numquam vitae est. Voluptatum consequuntur ut assumenda quidem commodi. Natus in perspiciatis accusantium libero quibusdam dignissimos ipsam minus impedit. Tempora omnis minima numquam impedit. Quam sapiente natus.",
      "features": [
        "possimus",
        "delectus",
        "incidunt",
        "molestias",
        "occaecati",
        "consectetur"
      ],
      "sleepingDetails": {
        "maxCapacity": 7,
        "amountOfBeds": 5
      },
      "checkInHour": "4pm",
      "checkOutHour": "10am",
      "distanceFromCityCenterInKM": 9,
      "contactDetails": {
        "phone": "46-089-01-62",
        "email": "Korneli.Ciesielski@gmail.com"
      }
    },
    {
      "id": 63943,
      "venueId": 53,
      "location": {
        "postalCode": "40-781",
        "name": "Zgorzelec"
      },
      "pricePerNightInEur": 26,
      "rating": 2.32,
      "capacity": 3,
      "name": "advanced-patrimony",
      "albumId": 53,
      "description": "Nemo explicabo consectetur magnam natus provident. Praesentium magnam incidunt culpa cupiditate suscipit architecto officiis. Nostrum minima non labore voluptatum distinctio. Accusantium recusandae molestias aut perspiciatis. Perspiciatis perspiciatis repudiandae officiis maxime laudantium laudantium voluptatem.",
      "features": [
        "unde",
        "porro",
        "totam",
        "fugiat",
        "nobis",
        "voluptatibus"
      ],
      "sleepingDetails": {
        "maxCapacity": 6,
        "amountOfBeds": 4
      },
      "checkInHour": "4pm",
      "checkOutHour": "10am",
      "distanceFromCityCenterInKM": 3,
      "contactDetails": {
        "phone": "86-901-97-49",
        "email": "Anna.Skowroski99@yahoo.com"
      }
    },
    {
      "id": 69060,
      "venueId": 54,
      "location": {
        "postalCode": "14-704",
        "name": "Lubsko"
      },
      "pricePerNightInEur": 17.49,
      "rating": 1.24,
      "capacity": 4,
      "name": "well-documented-wood",
      "albumId": 54,
      "description": "Dolore deleniti aperiam dignissimos voluptate ab iste consequuntur nisi. Doloremque mollitia tenetur commodi nisi odit laborum consectetur. Fugiat porro commodi deleniti dolorem quam. Adipisci vel ab eveniet incidunt. Repellendus excepturi unde molestiae.",
      "features": [
        "magnam",
        "quisquam",
        "vero",
        "facere",
        "est",
        "ipsa",
        "sed",
        "saepe"
      ],
      "sleepingDetails": {
        "maxCapacity": 7,
        "amountOfBeds": 3
      },
      "checkInHour": "4pm",
      "checkOutHour": "10am",
      "distanceFromCityCenterInKM": 1,
      "contactDetails": {
        "phone": "61-316-46-10",
        "email": "Samuel.Mynarczyk@yahoo.com"
      }
    },
    {
      "id": 49844,
      "venueId": 55,
      "location": {
        "postalCode": "26-070",
        "name": "Świdnica"
      },
      "pricePerNightInEur": 29.91,
      "rating": 2.25,
      "capacity": 4,
      "name": "outstanding-highlight",
      "albumId": 55,
      "description": "Expedita officiis odit asperiores explicabo numquam. Doloremque deleniti perferendis repellendus harum cumque aliquam totam deleniti asperiores. In nulla provident deleniti unde. Dolorum doloremque minima sint officia autem id pariatur vitae culpa.",
      "features": [
        "repellat",
        "odit",
        "aliquam",
        "architecto",
        "commodi",
        "quaerat",
        "nesciunt",
        "dolorem",
        "adipisci",
        "officiis"
      ],
      "sleepingDetails": {
        "maxCapacity": 5,
        "amountOfBeds": 1
      },
      "checkInHour": "4pm",
      "checkOutHour": "10am",
      "distanceFromCityCenterInKM": 11,
      "contactDetails": {
        "phone": "24-123-67-74",
        "email": "Erwin_Kubicki@hotmail.com"
      }
    },
    {
      "id": 29033,
      "venueId": 56,
      "location": {
        "postalCode": "50-517",
        "name": "Pyzdry"
      },
      "pricePerNightInEur": 11.44,
      "rating": 2.14,
      "capacity": 2,
      "name": "virtual-cummerbund",
      "albumId": 56,
      "description": "Neque laudantium cum magni. Eius maxime praesentium perspiciatis voluptas repellendus tenetur. Molestiae nulla quia accusamus ducimus eius cum quis reprehenderit. Quo aperiam ducimus sapiente blanditiis.",
      "features": [
        "a",
        "minima",
        "culpa",
        "nisi",
        "adipisci",
        "cum",
        "odio",
        "debitis",
        "qui",
        "tempore"
      ],
      "sleepingDetails": {
        "maxCapacity": 8,
        "amountOfBeds": 6
      },
      "checkInHour": "4pm",
      "checkOutHour": "10am",
      "distanceFromCityCenterInKM": 11,
      "contactDetails": {
        "phone": "32-939-91-27",
        "email": "Marek57@hotmail.com"
      }
    },
    {
      "id": 7728,
      "venueId": 57,
      "location": {
        "postalCode": "14-656",
        "name": "Stargard Szczeciński"
      },
      "pricePerNightInEur": 25.45,
      "rating": 3.01,
      "capacity": 1,
      "name": "clueless-thunder",
      "albumId": 57,
      "description": "Illum cumque laudantium vitae esse. Assumenda voluptatem itaque. Odit cupiditate quibusdam. Dolore doloremque reiciendis inventore accusantium eos commodi itaque.",
      "features": [
        "laboriosam",
        "cum",
        "maxime",
        "labore",
        "dicta",
        "voluptates",
        "rerum",
        "dolorem",
        "eos",
        "maiores"
      ],
      "sleepingDetails": {
        "maxCapacity": 6,
        "amountOfBeds": 5
      },
      "checkInHour": "4pm",
      "checkOutHour": "10am",
      "distanceFromCityCenterInKM": 14,
      "contactDetails": {
        "phone": "63-821-92-36",
        "email": "Helena.Lach@gmail.com"
      }
    },
    {
      "id": 19465,
      "venueId": 58,
      "location": {
        "postalCode": "00-778",
        "name": "Łaszczów"
      },
      "pricePerNightInEur": 17.05,
      "rating": 3.7,
      "capacity": 6,
      "name": "obedient-tire",
      "albumId": 58,
      "description": "Aspernatur vitae beatae iste beatae distinctio. Molestiae facere quae assumenda nobis dicta aliquid quisquam quis assumenda. Nesciunt sapiente ullam repellendus porro aspernatur iusto atque itaque dicta. Iure ipsam dolorum libero molestiae molestias.",
      "features": [
        "dolorem",
        "non",
        "officiis",
        "quos",
        "illo",
        "voluptatum",
        "ipsa",
        "odio",
        "totam"
      ],
      "sleepingDetails": {
        "maxCapacity": 5,
        "amountOfBeds": 3
      },
      "checkInHour": "4pm",
      "checkOutHour": "10am",
      "distanceFromCityCenterInKM": 5,
      "contactDetails": {
        "phone": "68-487-01-76",
        "email": "Erwin66@hotmail.com"
      }
    },
    {
      "id": 90953,
      "venueId": 59,
      "location": {
        "postalCode": "44-723",
        "name": "Wyszków"
      },
      "pricePerNightInEur": 28.72,
      "rating": 3.19,
      "capacity": 7,
      "name": "cheery-instance",
      "albumId": 59,
      "description": "Magni neque porro eveniet. Libero dolorem eveniet aliquam magnam debitis. Ducimus ab repudiandae odit maxime. Natus minima nisi ullam voluptatibus cupiditate laborum recusandae.",
      "features": [
        "officiis",
        "voluptate",
        "dolorum",
        "asperiores",
        "doloremque",
        "vitae",
        "ipsa",
        "libero",
        "mollitia"
      ],
      "sleepingDetails": {
        "maxCapacity": 8,
        "amountOfBeds": 3
      },
      "checkInHour": "4pm",
      "checkOutHour": "10am",
      "distanceFromCityCenterInKM": 14,
      "contactDetails": {
        "phone": "23-439-63-14",
        "email": "Pankracy_Kaua@hotmail.com"
      }
    },
    {
      "id": 94706,
      "venueId": 60,
      "location": {
        "postalCode": "42-181",
        "name": "Rakoniewice"
      },
      "pricePerNightInEur": 17.19,
      "rating": 1.02,
      "capacity": 1,
      "name": "familiar-boatyard",
      "albumId": 60,
      "description": "Fuga iusto doloribus repudiandae. Ex officiis eveniet. Iure maxime tenetur tempore perspiciatis quisquam dignissimos cum mollitia aspernatur. Explicabo occaecati dolore quis eum fugiat fuga ipsam dignissimos. Iure fugit excepturi doloremque architecto deleniti.",
      "features": [
        "eaque",
        "doloribus",
        "voluptas",
        "ab",
        "assumenda",
        "et",
        "totam",
        "consequatur",
        "voluptatum"
      ],
      "sleepingDetails": {
        "maxCapacity": 6,
        "amountOfBeds": 6
      },
      "checkInHour": "4pm",
      "checkOutHour": "10am",
      "distanceFromCityCenterInKM": 11,
      "contactDetails": {
        "phone": "61-971-06-88",
        "email": "Pawe56@yahoo.com"
      }
    },
    {
      "id": 55355,
      "venueId": 61,
      "location": {
        "postalCode": "02-294",
        "name": "Oborniki"
      },
      "pricePerNightInEur": 19.19,
      "rating": 3.5,
      "capacity": 5,
      "name": "well-made-birdcage",
      "albumId": 61,
      "description": "Voluptas cumque reprehenderit sit molestiae ipsam excepturi quas autem at. Reprehenderit placeat reprehenderit adipisci minima sint. Ipsa placeat explicabo expedita consequuntur corporis nihil quia at magni. Culpa voluptate necessitatibus minus aliquam animi molestiae adipisci quos. Illum tempore a repudiandae ipsum earum temporibus cum sint.",
      "features": [
        "officia",
        "recusandae",
        "quisquam",
        "hic",
        "ipsum",
        "illum",
        "distinctio",
        "ea",
        "excepturi"
      ],
      "sleepingDetails": {
        "maxCapacity": 6,
        "amountOfBeds": 5
      },
      "checkInHour": "4pm",
      "checkOutHour": "10am",
      "distanceFromCityCenterInKM": 11,
      "contactDetails": {
        "phone": "87-371-41-08",
        "email": "Damian32@gmail.com"
      }
    },
    {
      "id": 92737,
      "venueId": 62,
      "location": {
        "postalCode": "65-096",
        "name": "Stawiski"
      },
      "pricePerNightInEur": 10.93,
      "rating": 4.54,
      "capacity": 8,
      "name": "few-tragedy",
      "albumId": 62,
      "description": "Sit hic tempore aspernatur officia nostrum quia. At blanditiis velit enim cum dolore facere. Fugit culpa totam quasi sed at fugiat a tempora. Odit animi cum fugit dolorum.",
      "features": [
        "deleniti",
        "consequuntur",
        "quaerat",
        "est",
        "harum",
        "consectetur"
      ],
      "sleepingDetails": {
        "maxCapacity": 6,
        "amountOfBeds": 1
      },
      "checkInHour": "4pm",
      "checkOutHour": "10am",
      "distanceFromCityCenterInKM": 9,
      "contactDetails": {
        "phone": "61-506-59-68",
        "email": "Eliza.Biekowski4@yahoo.com"
      }
    },
    {
      "id": 74928,
      "venueId": 63,
      "location": {
        "postalCode": "81-240",
        "name": "Łeba"
      },
      "pricePerNightInEur": 31.38,
      "rating": 2.75,
      "capacity": 5,
      "name": "frozen-sibling",
      "albumId": 63,
      "description": "Libero ea expedita dolor vero hic. Odio facilis doloremque sed provident saepe. Dicta atque tempora doloribus quasi esse itaque veritatis suscipit.",
      "features": [
        "dolorum",
        "cum",
        "placeat",
        "inventore",
        "ut",
        "ipsam",
        "aut",
        "quaerat"
      ],
      "sleepingDetails": {
        "maxCapacity": 4,
        "amountOfBeds": 4
      },
      "checkInHour": "4pm",
      "checkOutHour": "10am",
      "distanceFromCityCenterInKM": 12,
      "contactDetails": {
        "phone": "65-902-89-60",
        "email": "Harald30@hotmail.com"
      }
    },
    {
      "id": 49541,
      "venueId": 64,
      "location": {
        "postalCode": "23-056",
        "name": "Rzeszów"
      },
      "pricePerNightInEur": 12.35,
      "rating": 1.85,
      "capacity": 3,
      "name": "serene-urgency",
      "albumId": 64,
      "description": "Officia numquam doloribus ex quasi labore. Perferendis aliquam quisquam. Sit fuga error assumenda voluptates illo amet. Ullam laudantium quo cum voluptatibus. Delectus eum impedit.",
      "features": [
        "autem",
        "alias",
        "eveniet",
        "rem",
        "velit",
        "magni",
        "maiores"
      ],
      "sleepingDetails": {
        "maxCapacity": 6,
        "amountOfBeds": 6
      },
      "checkInHour": "4pm",
      "checkOutHour": "10am",
      "distanceFromCityCenterInKM": 6,
      "contactDetails": {
        "phone": "83-566-76-34",
        "email": "Koralia_Pawlik@hotmail.com"
      }
    },
    {
      "id": 75162,
      "venueId": 65,
      "location": {
        "postalCode": "98-819",
        "name": "Bardo"
      },
      "pricePerNightInEur": 25.57,
      "rating": 1.01,
      "capacity": 2,
      "name": "black-orator",
      "albumId": 65,
      "description": "Veritatis esse vitae omnis. Sed error dicta consequuntur ut quam. Nesciunt ratione deserunt modi. Debitis corrupti sint.",
      "features": [
        "ex",
        "sunt",
        "molestiae",
        "optio",
        "cumque",
        "tempore",
        "natus",
        "modi"
      ],
      "sleepingDetails": {
        "maxCapacity": 8,
        "amountOfBeds": 3
      },
      "checkInHour": "4pm",
      "checkOutHour": "10am",
      "distanceFromCityCenterInKM": 4,
      "contactDetails": {
        "phone": "62-508-27-38",
        "email": "Cyrus.Klimek@yahoo.com"
      }
    },
    {
      "id": 62291,
      "venueId": 66,
      "location": {
        "postalCode": "98-216",
        "name": "Ostrów Mazowiecka"
      },
      "pricePerNightInEur": 26.89,
      "rating": 4.96,
      "capacity": 7,
      "name": "reflecting-nest",
      "albumId": 66,
      "description": "Iure culpa ea. Odio aliquam eligendi commodi cumque a esse rerum sunt commodi. Beatae officiis officia aut earum. Exercitationem quod quo nam.",
      "features": [
        "earum",
        "inventore",
        "saepe",
        "cupiditate",
        "soluta",
        "totam",
        "corrupti"
      ],
      "sleepingDetails": {
        "maxCapacity": 4,
        "amountOfBeds": 2
      },
      "checkInHour": "4pm",
      "checkOutHour": "10am",
      "distanceFromCityCenterInKM": 4,
      "contactDetails": {
        "phone": "86-605-20-71",
        "email": "Cezary.ukaszewski@yahoo.com"
      }
    },
    {
      "id": 15494,
      "venueId": 67,
      "location": {
        "postalCode": "06-136",
        "name": "Łapy"
      },
      "pricePerNightInEur": 26.53,
      "rating": 3.09,
      "capacity": 1,
      "name": "best-homosexuality",
      "albumId": 67,
      "description": "Dolor quam expedita. Ab hic quo aspernatur veritatis deserunt suscipit perspiciatis explicabo. Nobis facilis amet magnam ratione vero incidunt praesentium facilis.",
      "features": [
        "provident",
        "harum",
        "delectus",
        "dolorum",
        "veritatis",
        "doloremque"
      ],
      "sleepingDetails": {
        "maxCapacity": 7,
        "amountOfBeds": 6
      },
      "checkInHour": "4pm",
      "checkOutHour": "10am",
      "distanceFromCityCenterInKM": 13,
      "contactDetails": {
        "phone": "81-402-88-84",
        "email": "Sebastian85@hotmail.com"
      }
    },
    {
      "id": 91905,
      "venueId": 68,
      "location": {
        "postalCode": "87-209",
        "name": "Raciąż"
      },
      "pricePerNightInEur": 31.89,
      "rating": 3.7,
      "capacity": 4,
      "name": "unlucky-plot",
      "albumId": 68,
      "description": "In iusto ea nesciunt accusantium aut ipsum eveniet quasi. Dignissimos consectetur asperiores reprehenderit iure provident id eligendi. Illo expedita hic quo optio. Commodi nulla harum ab doloribus.",
      "features": [
        "repudiandae",
        "consectetur",
        "accusantium",
        "repellat",
        "minima",
        "alias",
        "nemo"
      ],
      "sleepingDetails": {
        "maxCapacity": 7,
        "amountOfBeds": 1
      },
      "checkInHour": "4pm",
      "checkOutHour": "10am",
      "distanceFromCityCenterInKM": 10,
      "contactDetails": {
        "phone": "87-280-34-16",
        "email": "Alwar.Osiski63@yahoo.com"
      }
    },
    {
      "id": 74805,
      "venueId": 69,
      "location": {
        "postalCode": "22-210",
        "name": "Szczebrzeszyn"
      },
      "pricePerNightInEur": 31.3,
      "rating": 1.49,
      "capacity": 1,
      "name": "arctic-moccasins",
      "albumId": 69,
      "description": "Magni unde qui hic tempore consequuntur iusto dicta. Iure doloribus impedit sed debitis reprehenderit dignissimos ipsa nesciunt commodi. Maxime unde minus molestiae pariatur alias magnam earum dolorem. Maiores amet expedita ipsa sequi eligendi. Quisquam asperiores natus cumque. Laborum placeat harum.",
      "features": [
        "eveniet",
        "assumenda",
        "impedit",
        "corporis",
        "totam",
        "aut",
        "nam",
        "laudantium"
      ],
      "sleepingDetails": {
        "maxCapacity": 4,
        "amountOfBeds": 1
      },
      "checkInHour": "4pm",
      "checkOutHour": "10am",
      "distanceFromCityCenterInKM": 12,
      "contactDetails": {
        "phone": "59-154-21-30",
        "email": "Hanna.Paczkowski@hotmail.com"
      }
    },
    {
      "id": 58241,
      "venueId": 70,
      "location": {
        "postalCode": "56-475",
        "name": "Skoczów"
      },
      "pricePerNightInEur": 18.68,
      "rating": 4.29,
      "capacity": 4,
      "name": "careless-chiffonier",
      "albumId": 70,
      "description": "Nemo deleniti esse asperiores in asperiores fuga natus possimus unde. Minima expedita rem. Facilis sed officia repellendus error dolorum est soluta perspiciatis.",
      "features": [
        "accusantium",
        "molestiae",
        "distinctio",
        "hic",
        "laboriosam",
        "illo",
        "odit",
        "fuga",
        "quo",
        "quaerat"
      ],
      "sleepingDetails": {
        "maxCapacity": 8,
        "amountOfBeds": 2
      },
      "checkInHour": "4pm",
      "checkOutHour": "10am",
      "distanceFromCityCenterInKM": 1,
      "contactDetails": {
        "phone": "32-255-07-74",
        "email": "Eudokia_Kaczmarczyk@gmail.com"
      }
    },
    {
      "id": 55690,
      "venueId": 71,
      "location": {
        "postalCode": "92-484",
        "name": "Sucha Beskidzka"
      },
      "pricePerNightInEur": 34.47,
      "rating": 4.96,
      "capacity": 7,
      "name": "overlooked-adrenaline",
      "albumId": 71,
      "description": "Perspiciatis fugiat officiis magni harum inventore reprehenderit delectus. Quos omnis neque ipsa alias modi nemo aliquam iusto est. Ipsum ipsum repellendus nesciunt.",
      "features": [
        "quos",
        "vitae",
        "iusto",
        "repudiandae",
        "eveniet",
        "ratione",
        "vero",
        "magni"
      ],
      "sleepingDetails": {
        "maxCapacity": 4,
        "amountOfBeds": 5
      },
      "checkInHour": "4pm",
      "checkOutHour": "10am",
      "distanceFromCityCenterInKM": 3,
      "contactDetails": {
        "phone": "61-714-01-99",
        "email": "Kwintyn99@hotmail.com"
      }
    },
    {
      "id": 94081,
      "venueId": 72,
      "location": {
        "postalCode": "28-527",
        "name": "Mszana Dolna"
      },
      "pricePerNightInEur": 19.62,
      "rating": 3.13,
      "capacity": 6,
      "name": "greedy-sled",
      "albumId": 72,
      "description": "Expedita consectetur iusto fugiat temporibus a magni placeat temporibus. Quis veritatis nulla. Id eligendi cupiditate iusto repellat sapiente totam delectus illo. Consequatur porro sed ad distinctio sed error iste. Nam saepe labore. Quo facilis dolores a consequuntur id inventore deleniti.",
      "features": [
        "voluptates",
        "quis",
        "accusamus",
        "nisi",
        "maiores",
        "tenetur",
        "officia",
        "dolores",
        "adipisci",
        "nisi"
      ],
      "sleepingDetails": {
        "maxCapacity": 7,
        "amountOfBeds": 4
      },
      "checkInHour": "4pm",
      "checkOutHour": "10am",
      "distanceFromCityCenterInKM": 10,
      "contactDetails": {
        "phone": "29-264-88-61",
        "email": "Leon_Janowski@gmail.com"
      }
    },
    {
      "id": 48082,
      "venueId": 73,
      "location": {
        "postalCode": "45-766",
        "name": "Rawa Mazowiecka"
      },
      "pricePerNightInEur": 17.07,
      "rating": 3.22,
      "capacity": 8,
      "name": "compassionate-hermit",
      "albumId": 73,
      "description": "Nemo possimus fugit totam repellendus officiis distinctio minus doloremque. Asperiores cupiditate alias perferendis commodi asperiores. Suscipit voluptatum ad laboriosam expedita. Provident est nam numquam est dolores. Incidunt ea maxime vel animi eaque.",
      "features": [
        "illum",
        "earum",
        "modi",
        "dolore",
        "voluptas",
        "nihil",
        "molestias",
        "odit",
        "maxime"
      ],
      "sleepingDetails": {
        "maxCapacity": 6,
        "amountOfBeds": 6
      },
      "checkInHour": "4pm",
      "checkOutHour": "10am",
      "distanceFromCityCenterInKM": 6,
      "contactDetails": {
        "phone": "77-093-32-66",
        "email": "Izolda28@yahoo.com"
      }
    },
    {
      "id": 54941,
      "venueId": 74,
      "location": {
        "postalCode": "48-446",
        "name": "Jeziorany"
      },
      "pricePerNightInEur": 31.73,
      "rating": 3.43,
      "capacity": 1,
      "name": "wary-alligator",
      "albumId": 74,
      "description": "Et exercitationem rem voluptates enim consectetur porro nesciunt. Libero ipsam nihil nobis veritatis repellat. Excepturi repellat quod magnam asperiores optio. Quis recusandae doloremque modi culpa quam.",
      "features": [
        "reprehenderit",
        "dolorum",
        "tenetur",
        "eius",
        "veniam",
        "aperiam",
        "quasi"
      ],
      "sleepingDetails": {
        "maxCapacity": 8,
        "amountOfBeds": 6
      },
      "checkInHour": "4pm",
      "checkOutHour": "10am",
      "distanceFromCityCenterInKM": 6,
      "contactDetails": {
        "phone": "68-243-62-03",
        "email": "Ignacy70@hotmail.com"
      }
    },
    {
      "id": 82433,
      "venueId": 75,
      "location": {
        "postalCode": "95-495",
        "name": "Żarki"
      },
      "pricePerNightInEur": 14.42,
      "rating": 1.38,
      "capacity": 8,
      "name": "mountainous-ankle",
      "albumId": 75,
      "description": "Molestias in modi quaerat sunt tenetur. Praesentium et cupiditate distinctio neque. Officia corporis asperiores doloremque. Neque repellendus exercitationem voluptas laborum eos culpa odit. Rem aut impedit ab vel. Vero sit totam laborum minus.",
      "features": [
        "est",
        "modi",
        "ipsam",
        "earum",
        "aliquam",
        "quasi",
        "repellat",
        "minima",
        "vel",
        "sunt"
      ],
      "sleepingDetails": {
        "maxCapacity": 4,
        "amountOfBeds": 1
      },
      "checkInHour": "4pm",
      "checkOutHour": "10am",
      "distanceFromCityCenterInKM": 5,
      "contactDetails": {
        "phone": "16-400-13-50",
        "email": "Juliusz59@gmail.com"
      }
    },
    {
      "id": 46662,
      "venueId": 76,
      "location": {
        "postalCode": "40-856",
        "name": "Młynary"
      },
      "pricePerNightInEur": 24.52,
      "rating": 2.9,
      "capacity": 3,
      "name": "pleasant-placode",
      "albumId": 76,
      "description": "Maxime nam reiciendis vitae voluptatibus tempora fuga. Provident fugit minima dolorum iusto quo sapiente. Placeat dolore pariatur ratione minima unde temporibus porro autem deleniti. Porro nihil sed ipsa velit ratione. Ducimus nisi unde iure modi possimus facilis.",
      "features": [
        "possimus",
        "nihil",
        "facere",
        "inventore",
        "ut",
        "voluptatibus",
        "ab",
        "incidunt"
      ],
      "sleepingDetails": {
        "maxCapacity": 3,
        "amountOfBeds": 6
      },
      "checkInHour": "4pm",
      "checkOutHour": "10am",
      "distanceFromCityCenterInKM": 14,
      "contactDetails": {
        "phone": "71-644-32-44",
        "email": "Wacaw53@hotmail.com"
      }
    },
    {
      "id": 48232,
      "venueId": 77,
      "location": {
        "postalCode": "15-300",
        "name": "Hrubieszów"
      },
      "pricePerNightInEur": 23.65,
      "rating": 2.92,
      "capacity": 3,
      "name": "variable-nymph",
      "albumId": 77,
      "description": "Possimus quibusdam tenetur vero omnis eveniet sunt sed aspernatur. Eum sed optio aliquam hic tempore nam a. Cum doloremque eveniet harum facilis non. Eligendi perspiciatis similique dolores fugiat. Numquam vel eum quibusdam similique porro. Unde quae voluptate.",
      "features": [
        "consequatur",
        "quibusdam",
        "dolor",
        "ipsa",
        "fugiat",
        "minus",
        "officiis",
        "sit"
      ],
      "sleepingDetails": {
        "maxCapacity": 4,
        "amountOfBeds": 6
      },
      "checkInHour": "4pm",
      "checkOutHour": "10am",
      "distanceFromCityCenterInKM": 9,
      "contactDetails": {
        "phone": "59-765-85-84",
        "email": "Oskar_Kowalczyk@hotmail.com"
      }
    },
    {
      "id": 34739,
      "venueId": 78,
      "location": {
        "postalCode": "90-199",
        "name": "Rydzyna"
      },
      "pricePerNightInEur": 18.7,
      "rating": 1.87,
      "capacity": 5,
      "name": "tall-rhinoceros",
      "albumId": 78,
      "description": "Labore dolor ab nulla repellat similique. Quam maxime nam assumenda aliquam. Earum repudiandae voluptas cum explicabo corrupti doloremque soluta debitis esse. Itaque inventore voluptates id eaque. Incidunt eligendi expedita consequuntur. Iste vero repellat beatae ex maiores expedita odio.",
      "features": [
        "architecto",
        "numquam",
        "praesentium",
        "magni",
        "possimus",
        "ullam"
      ],
      "sleepingDetails": {
        "maxCapacity": 5,
        "amountOfBeds": 1
      },
      "checkInHour": "4pm",
      "checkOutHour": "10am",
      "distanceFromCityCenterInKM": 3,
      "contactDetails": {
        "phone": "91-074-10-66",
        "email": "Izolda.Czyewski@yahoo.com"
      }
    },
    {
      "id": 88133,
      "venueId": 79,
      "location": {
        "postalCode": "21-261",
        "name": "Zakliczyn"
      },
      "pricePerNightInEur": 30.72,
      "rating": 1.55,
      "capacity": 1,
      "name": "mammoth-action",
      "albumId": 79,
      "description": "Harum ullam quas earum architecto eos nesciunt fugit molestias. Qui ad labore sunt doloribus placeat ducimus. Quo ut magni placeat labore natus sint odit. Molestias expedita fugiat autem non eum saepe voluptatum quo.",
      "features": [
        "voluptates",
        "dolores",
        "necessitatibus",
        "veritatis",
        "pariatur",
        "ipsam",
        "quasi",
        "perferendis"
      ],
      "sleepingDetails": {
        "maxCapacity": 8,
        "amountOfBeds": 5
      },
      "checkInHour": "4pm",
      "checkOutHour": "10am",
      "distanceFromCityCenterInKM": 9,
      "contactDetails": {
        "phone": "82-690-41-77",
        "email": "Luiza.Stachowicz3@yahoo.com"
      }
    },
    {
      "id": 51226,
      "venueId": 80,
      "location": {
        "postalCode": "25-128",
        "name": "Radzyń Chełmiński"
      },
      "pricePerNightInEur": 25.09,
      "rating": 3.58,
      "capacity": 5,
      "name": "cheerful-noun",
      "albumId": 80,
      "description": "Molestias exercitationem nemo voluptate maiores ducimus libero quas commodi recusandae. Facilis nostrum dignissimos adipisci vel. Aperiam illo reprehenderit ipsam maxime nostrum dicta. Corrupti quidem minima quibusdam officiis provident velit.",
      "features": [
        "aspernatur",
        "repellendus",
        "unde",
        "assumenda",
        "et",
        "minus",
        "voluptas",
        "quis",
        "aliquam"
      ],
      "sleepingDetails": {
        "maxCapacity": 6,
        "amountOfBeds": 1
      },
      "checkInHour": "4pm",
      "checkOutHour": "10am",
      "distanceFromCityCenterInKM": 15,
      "contactDetails": {
        "phone": "54-571-29-53",
        "email": "Eustracjusz.Kaniewski47@gmail.com"
      }
    },
    {
      "id": 46789,
      "venueId": 81,
      "location": {
        "postalCode": "92-996",
        "name": "Wałcz"
      },
      "pricePerNightInEur": 11.41,
      "rating": 2.95,
      "capacity": 6,
      "name": "parched-arrest",
      "albumId": 81,
      "description": "Numquam occaecati expedita reprehenderit ipsum reiciendis reiciendis neque. Natus nihil sapiente error earum. Consectetur qui enim quasi velit alias asperiores amet. Asperiores est saepe natus reprehenderit. Numquam doloribus saepe cupiditate nisi reiciendis adipisci quae.",
      "features": [
        "ullam",
        "quos",
        "illo",
        "a",
        "distinctio",
        "amet",
        "eos"
      ],
      "sleepingDetails": {
        "maxCapacity": 6,
        "amountOfBeds": 4
      },
      "checkInHour": "4pm",
      "checkOutHour": "10am",
      "distanceFromCityCenterInKM": 12,
      "contactDetails": {
        "phone": "84-741-94-52",
        "email": "Jakub14@yahoo.com"
      }
    },
    {
      "id": 56508,
      "venueId": 82,
      "location": {
        "postalCode": "26-356",
        "name": "Ryglice"
      },
      "pricePerNightInEur": 32.96,
      "rating": 1.86,
      "capacity": 6,
      "name": "functional-netball",
      "albumId": 82,
      "description": "Iusto ipsam id tempore nulla iusto dolores praesentium asperiores. Minima magnam deserunt animi animi quasi delectus nostrum eligendi. Quae illo recusandae fugit quaerat soluta vero nulla error. Magni tempore fuga ullam quod sapiente illo vel suscipit. Repellat vel voluptates deserunt maxime optio modi.",
      "features": [
        "dolorem",
        "deserunt",
        "omnis",
        "atque",
        "sint",
        "magni",
        "quaerat",
        "facere"
      ],
      "sleepingDetails": {
        "maxCapacity": 5,
        "amountOfBeds": 6
      },
      "checkInHour": "4pm",
      "checkOutHour": "10am",
      "distanceFromCityCenterInKM": 2,
      "contactDetails": {
        "phone": "68-052-22-42",
        "email": "Agata_Rybarczyk@yahoo.com"
      }
    },
    {
      "id": 77308,
      "venueId": 83,
      "location": {
        "postalCode": "55-144",
        "name": "Aleksandrów Łódzki"
      },
      "pricePerNightInEur": 17.54,
      "rating": 4.81,
      "capacity": 5,
      "name": "pale-thinking",
      "albumId": 83,
      "description": "Nesciunt odio similique debitis rerum nam fuga porro at iure. Eum corporis inventore quas eligendi earum occaecati. Corrupti enim itaque suscipit ea quo. Aliquid cupiditate aspernatur.",
      "features": [
        "laudantium",
        "fugiat",
        "commodi",
        "accusamus",
        "tenetur",
        "consectetur",
        "iusto",
        "quis",
        "recusandae"
      ],
      "sleepingDetails": {
        "maxCapacity": 3,
        "amountOfBeds": 2
      },
      "checkInHour": "4pm",
      "checkOutHour": "10am",
      "distanceFromCityCenterInKM": 5,
      "contactDetails": {
        "phone": "52-545-79-76",
        "email": "Tekla.Baraski@hotmail.com"
      }
    },
    {
      "id": 41219,
      "venueId": 84,
      "location": {
        "postalCode": "44-138",
        "name": "Zbąszynek"
      },
      "pricePerNightInEur": 26.52,
      "rating": 4.88,
      "capacity": 7,
      "name": "realistic-hatchet",
      "albumId": 84,
      "description": "A eligendi sunt harum. Quaerat blanditiis velit minima eaque error quos occaecati nemo. Unde cumque totam aspernatur. Molestiae corrupti nemo animi repellendus iure nemo maxime. Aliquid dolorum natus laudantium accusantium rem inventore necessitatibus officia.",
      "features": [
        "iste",
        "dolore",
        "nihil",
        "optio",
        "cum",
        "rem",
        "cumque"
      ],
      "sleepingDetails": {
        "maxCapacity": 8,
        "amountOfBeds": 5
      },
      "checkInHour": "4pm",
      "checkOutHour": "10am",
      "distanceFromCityCenterInKM": 8,
      "contactDetails": {
        "phone": "15-858-81-97",
        "email": "Chloe71@gmail.com"
      }
    },
    {
      "id": 89760,
      "venueId": 85,
      "location": {
        "postalCode": "95-156",
        "name": "Mirsk"
      },
      "pricePerNightInEur": 13.47,
      "rating": 2.58,
      "capacity": 7,
      "name": "monthly-publishing",
      "albumId": 85,
      "description": "Sed minus voluptatum ducimus odit quos. Tempora mollitia enim eos blanditiis eveniet ipsa deserunt. Cupiditate dolor vel tempore itaque magnam aut laudantium temporibus. Reiciendis eveniet omnis quis aspernatur voluptate minus. Eius voluptatem numquam odio. Quis libero rerum incidunt.",
      "features": [
        "saepe",
        "laborum",
        "eius",
        "nesciunt",
        "maxime",
        "vero",
        "unde",
        "minus",
        "quod"
      ],
      "sleepingDetails": {
        "maxCapacity": 8,
        "amountOfBeds": 5
      },
      "checkInHour": "4pm",
      "checkOutHour": "10am",
      "distanceFromCityCenterInKM": 8,
      "contactDetails": {
        "phone": "43-230-65-93",
        "email": "August.Jasiski@hotmail.com"
      }
    },
    {
      "id": 75828,
      "venueId": 86,
      "location": {
        "postalCode": "88-726",
        "name": "Duszniki-Zdrój"
      },
      "pricePerNightInEur": 19.64,
      "rating": 2.63,
      "capacity": 8,
      "name": "rapid-soliloquy",
      "albumId": 86,
      "description": "Vitae illo iste ex. Architecto harum amet ad. Minus incidunt totam unde asperiores explicabo laboriosam.",
      "features": [
        "accusamus",
        "ducimus",
        "consequatur",
        "autem",
        "tenetur",
        "deserunt"
      ],
      "sleepingDetails": {
        "maxCapacity": 3,
        "amountOfBeds": 3
      },
      "checkInHour": "4pm",
      "checkOutHour": "10am",
      "distanceFromCityCenterInKM": 7,
      "contactDetails": {
        "phone": "22-177-88-40",
        "email": "aneta.Kozie65@yahoo.com"
      }
    },
    {
      "id": 74756,
      "venueId": 87,
      "location": {
        "postalCode": "24-060",
        "name": "Biała"
      },
      "pricePerNightInEur": 11.84,
      "rating": 4.68,
      "capacity": 2,
      "name": "delightful-tournament",
      "albumId": 87,
      "description": "Veritatis id accusamus aspernatur. Doloribus veniam quae explicabo nisi nulla perspiciatis impedit mollitia officiis. Laborum non animi dolore quae cumque quaerat aut aut ratione. Aliquid voluptatum hic officiis unde distinctio ea iste. Incidunt autem numquam repudiandae necessitatibus dolore vitae. Laborum atque magnam quisquam neque odio quod cum.",
      "features": [
        "fugiat",
        "pariatur",
        "dolorem",
        "rem",
        "exercitationem",
        "voluptatum",
        "excepturi"
      ],
      "sleepingDetails": {
        "maxCapacity": 5,
        "amountOfBeds": 2
      },
      "checkInHour": "4pm",
      "checkOutHour": "10am",
      "distanceFromCityCenterInKM": 2,
      "contactDetails": {
        "phone": "12-659-29-71",
        "email": "Osmund_Dbkowski@gmail.com"
      }
    },
    {
      "id": 29740,
      "venueId": 88,
      "location": {
        "postalCode": "87-810",
        "name": "Ulanów"
      },
      "pricePerNightInEur": 33.44,
      "rating": 4.32,
      "capacity": 8,
      "name": "fluid-mug",
      "albumId": 88,
      "description": "Facere optio est incidunt quae accusamus animi iure. Recusandae dolore deserunt commodi reprehenderit hic hic iste laborum. Dolor earum est deleniti. Quas et odit pariatur ut.",
      "features": [
        "quae",
        "corporis",
        "perferendis",
        "nobis",
        "placeat",
        "quia",
        "vero",
        "officiis",
        "nesciunt",
        "optio"
      ],
      "sleepingDetails": {
        "maxCapacity": 5,
        "amountOfBeds": 2
      },
      "checkInHour": "4pm",
      "checkOutHour": "10am",
      "distanceFromCityCenterInKM": 8,
      "contactDetails": {
        "phone": "86-546-64-72",
        "email": "Miron_Sowa31@hotmail.com"
      }
    },
    {
      "id": 11488,
      "venueId": 89,
      "location": {
        "postalCode": "90-954",
        "name": "Czchów"
      },
      "pricePerNightInEur": 31.65,
      "rating": 4.6,
      "capacity": 6,
      "name": "cuddly-tugboat",
      "albumId": 89,
      "description": "Dolor perspiciatis voluptatem molestias modi minus consectetur repudiandae. Qui maiores quod quos provident. Quos temporibus reprehenderit fugiat ipsa praesentium distinctio ducimus architecto. Animi asperiores accusamus accusantium.",
      "features": [
        "exercitationem",
        "quaerat",
        "omnis",
        "placeat",
        "nobis",
        "tempora",
        "facilis",
        "eaque"
      ],
      "sleepingDetails": {
        "maxCapacity": 7,
        "amountOfBeds": 3
      },
      "checkInHour": "4pm",
      "checkOutHour": "10am",
      "distanceFromCityCenterInKM": 4,
      "contactDetails": {
        "phone": "34-594-70-46",
        "email": "Igor_Koodziej24@yahoo.com"
      }
    },
    {
      "id": 58541,
      "venueId": 90,
      "location": {
        "postalCode": "42-642",
        "name": "Chocianów"
      },
      "pricePerNightInEur": 13.48,
      "rating": 4.97,
      "capacity": 1,
      "name": "straight-cowboy",
      "albumId": 90,
      "description": "Sed saepe ipsa tempora temporibus. Expedita commodi sed rem minima quibusdam. Amet expedita quis. Facere sequi ipsum placeat consequatur. Possimus iure aut fuga fugit illum perspiciatis minima.",
      "features": [
        "aut",
        "reprehenderit",
        "necessitatibus",
        "debitis",
        "tempore",
        "id",
        "dolores",
        "placeat",
        "sit",
        "animi"
      ],
      "sleepingDetails": {
        "maxCapacity": 3,
        "amountOfBeds": 5
      },
      "checkInHour": "4pm",
      "checkOutHour": "10am",
      "distanceFromCityCenterInKM": 8,
      "contactDetails": {
        "phone": "74-433-17-55",
        "email": "Zuzanna.Piotrowski61@hotmail.com"
      }
    },
    {
      "id": 99357,
      "venueId": 91,
      "location": {
        "postalCode": "89-307",
        "name": "Przedecz"
      },
      "pricePerNightInEur": 26.2,
      "rating": 1.47,
      "capacity": 4,
      "name": "ruddy-overnighter",
      "albumId": 91,
      "description": "Cumque sint omnis mollitia officiis. Pariatur recusandae quas ea quod harum cumque aut ullam rerum. Quisquam asperiores eum ipsum impedit. Officia voluptates accusamus cumque sed voluptas nesciunt dignissimos enim explicabo. Illum ex sapiente et quaerat eos. Nihil eveniet velit harum.",
      "features": [
        "at",
        "natus",
        "occaecati",
        "numquam",
        "doloremque",
        "vero",
        "labore"
      ],
      "sleepingDetails": {
        "maxCapacity": 3,
        "amountOfBeds": 6
      },
      "checkInHour": "4pm",
      "checkOutHour": "10am",
      "distanceFromCityCenterInKM": 7,
      "contactDetails": {
        "phone": "52-584-00-24",
        "email": "Herman_Jurkiewicz93@hotmail.com"
      }
    },
    {
      "id": 97314,
      "venueId": 92,
      "location": {
        "postalCode": "21-692",
        "name": "Żarów"
      },
      "pricePerNightInEur": 21.52,
      "rating": 3.59,
      "capacity": 2,
      "name": "remote-peach",
      "albumId": 92,
      "description": "Voluptas ducimus distinctio rerum nihil earum officiis eius. Amet accusamus necessitatibus. Reiciendis porro culpa excepturi possimus eligendi quia cumque unde.",
      "features": [
        "natus",
        "veritatis",
        "voluptate",
        "ad",
        "nam",
        "vero"
      ],
      "sleepingDetails": {
        "maxCapacity": 5,
        "amountOfBeds": 4
      },
      "checkInHour": "4pm",
      "checkOutHour": "10am",
      "distanceFromCityCenterInKM": 15,
      "contactDetails": {
        "phone": "54-096-72-13",
        "email": "Izaak.Wroski0@yahoo.com"
      }
    },
    {
      "id": 86644,
      "venueId": 93,
      "location": {
        "postalCode": "04-280",
        "name": "Legionowo"
      },
      "pricePerNightInEur": 19.16,
      "rating": 3,
      "capacity": 1,
      "name": "blaring-bandana",
      "albumId": 93,
      "description": "Fugit eum similique vero vel. Commodi maiores numquam iusto. Dolor officiis tempora omnis quibusdam in molestiae natus est aspernatur.",
      "features": [
        "ullam",
        "enim",
        "molestiae",
        "ipsa",
        "adipisci",
        "cum",
        "illo",
        "accusantium"
      ],
      "sleepingDetails": {
        "maxCapacity": 5,
        "amountOfBeds": 1
      },
      "checkInHour": "4pm",
      "checkOutHour": "10am",
      "distanceFromCityCenterInKM": 5,
      "contactDetails": {
        "phone": "75-931-06-50",
        "email": "Reginald74@gmail.com"
      }
    },
    {
      "id": 91653,
      "venueId": 94,
      "location": {
        "postalCode": "06-560",
        "name": "Radzyń Podlaski"
      },
      "pricePerNightInEur": 26.42,
      "rating": 1.54,
      "capacity": 8,
      "name": "new-psychologist",
      "albumId": 94,
      "description": "Dignissimos voluptas similique iusto. Minima totam autem vitae illum dolor enim atque optio distinctio. Voluptatibus eum temporibus itaque nam. Quam maiores voluptatem sapiente accusamus veritatis quibusdam deserunt veniam quis.",
      "features": [
        "veniam",
        "velit",
        "harum",
        "perferendis",
        "odio",
        "natus"
      ],
      "sleepingDetails": {
        "maxCapacity": 4,
        "amountOfBeds": 6
      },
      "checkInHour": "4pm",
      "checkOutHour": "10am",
      "distanceFromCityCenterInKM": 7,
      "contactDetails": {
        "phone": "86-808-08-94",
        "email": "Hugo.Jdrzejewski@gmail.com"
      }
    },
    {
      "id": 77017,
      "venueId": 95,
      "location": {
        "postalCode": "13-261",
        "name": "Nowe Brzesko"
      },
      "pricePerNightInEur": 30.6,
      "rating": 2.86,
      "capacity": 6,
      "name": "self-reliant-detention",
      "albumId": 95,
      "description": "Dolores voluptatum id commodi ipsam debitis. Magni dicta doloribus fuga. Accusamus ab suscipit voluptate eius hic doloremque. Laboriosam asperiores fuga libero exercitationem corporis non iusto ipsa tempora.",
      "features": [
        "magnam",
        "vero",
        "odio",
        "asperiores",
        "suscipit",
        "eveniet"
      ],
      "sleepingDetails": {
        "maxCapacity": 4,
        "amountOfBeds": 3
      },
      "checkInHour": "4pm",
      "checkOutHour": "10am",
      "distanceFromCityCenterInKM": 11,
      "contactDetails": {
        "phone": "68-343-74-92",
        "email": "Hilary54@yahoo.com"
      }
    },
    {
      "id": 19159,
      "venueId": 96,
      "location": {
        "postalCode": "05-301",
        "name": "Łeba"
      },
      "pricePerNightInEur": 29.84,
      "rating": 4.16,
      "capacity": 3,
      "name": "double-hash",
      "albumId": 96,
      "description": "Eos placeat impedit voluptate culpa ipsum occaecati harum quo in. Debitis itaque commodi similique voluptatem in quisquam tempore minima maxime. Hic distinctio natus. Culpa quaerat consectetur rem. Quae sit quasi iste consectetur quasi.",
      "features": [
        "ex",
        "officia",
        "repudiandae",
        "eos",
        "adipisci",
        "quas",
        "esse",
        "modi",
        "totam",
        "suscipit"
      ],
      "sleepingDetails": {
        "maxCapacity": 6,
        "amountOfBeds": 2
      },
      "checkInHour": "4pm",
      "checkOutHour": "10am",
      "distanceFromCityCenterInKM": 10,
      "contactDetails": {
        "phone": "52-423-05-96",
        "email": "Klemens79@hotmail.com"
      }
    },
    {
      "id": 64443,
      "venueId": 97,
      "location": {
        "postalCode": "06-260",
        "name": "Jedwabne"
      },
      "pricePerNightInEur": 33.47,
      "rating": 3.55,
      "capacity": 1,
      "name": "unfit-convention",
      "albumId": 97,
      "description": "Cumque aspernatur ab aperiam ad autem officia vero. Voluptate doloribus doloremque magni tenetur dolores. Eius odio quia iste dicta perferendis expedita.",
      "features": [
        "explicabo",
        "consequuntur",
        "praesentium",
        "id",
        "accusamus",
        "illo"
      ],
      "sleepingDetails": {
        "maxCapacity": 7,
        "amountOfBeds": 2
      },
      "checkInHour": "4pm",
      "checkOutHour": "10am",
      "distanceFromCityCenterInKM": 10,
      "contactDetails": {
        "phone": "22-012-03-36",
        "email": "Eudokia.Michalak19@yahoo.com"
      }
    },
    {
      "id": 99082,
      "venueId": 98,
      "location": {
        "postalCode": "38-600",
        "name": "Baborów"
      },
      "pricePerNightInEur": 18.8,
      "rating": 4.76,
      "capacity": 6,
      "name": "putrid-inequality",
      "albumId": 98,
      "description": "Dolores veniam dolorem minus distinctio cupiditate mollitia a recusandae eligendi. Asperiores deserunt nostrum magnam fugit nulla placeat. Delectus vero odio tenetur facilis iure.",
      "features": [
        "saepe",
        "accusantium",
        "iusto",
        "sint",
        "maxime",
        "totam",
        "quidem",
        "earum"
      ],
      "sleepingDetails": {
        "maxCapacity": 8,
        "amountOfBeds": 5
      },
      "checkInHour": "4pm",
      "checkOutHour": "10am",
      "distanceFromCityCenterInKM": 6,
      "contactDetails": {
        "phone": "91-870-10-36",
        "email": "Koralia_Drozd@yahoo.com"
      }
    },
    {
      "id": 61201,
      "venueId": 99,
      "location": {
        "postalCode": "29-217",
        "name": "Łańcut"
      },
      "pricePerNightInEur": 29.45,
      "rating": 3.25,
      "capacity": 3,
      "name": "gorgeous-epoch",
      "albumId": 99,
      "description": "Aliquid fugiat soluta molestiae. Laudantium repellendus nemo nesciunt eligendi explicabo velit natus. Rem corrupti ipsa officiis quod blanditiis possimus dolorem saepe. Nulla aspernatur eos quaerat magni natus dolorum suscipit. Officia unde accusamus voluptatum quia minus deleniti non. Dolore dicta aliquam eius.",
      "features": [
        "dolor",
        "doloremque",
        "earum",
        "magnam",
        "deserunt",
        "aliquam"
      ],
      "sleepingDetails": {
        "maxCapacity": 7,
        "amountOfBeds": 6
      },
      "checkInHour": "4pm",
      "checkOutHour": "10am",
      "distanceFromCityCenterInKM": 3,
      "contactDetails": {
        "phone": "18-853-39-02",
        "email": "Erwin86@yahoo.com"
      }
    },
    {
      "id": 64070,
      "venueId": 100,
      "location": {
        "postalCode": "98-508",
        "name": "Kętrzyn"
      },
      "pricePerNightInEur": 26.22,
      "rating": 3.71,
      "capacity": 7,
      "name": "tame-music",
      "albumId": 100,
      "description": "Suscipit rem reprehenderit. Ipsam praesentium veniam excepturi fuga laudantium. Saepe eaque quaerat. Delectus veritatis facere voluptas praesentium a. Distinctio voluptates aliquid et minima.",
      "features": [
        "distinctio",
        "voluptate",
        "animi",
        "recusandae",
        "eligendi",
        "soluta",
        "veritatis",
        "non"
      ],
      "sleepingDetails": {
        "maxCapacity": 5,
        "amountOfBeds": 1
      },
      "checkInHour": "4pm",
      "checkOutHour": "10am",
      "distanceFromCityCenterInKM": 3,
      "contactDetails": {
        "phone": "89-000-04-95",
        "email": "Jeremi_Drabik95@hotmail.com"
      }
    }
  ]
}